{"type":"FeatureCollection","features":[{"type":"Feature","properties":{"name":"Abano Terme","id_staz":"S05700","id_reg":12},"geometry":{"type":"Point","coordinates":[11.811533,45.355199]}},{"type":"Feature","properties":{"name":"Abbadia Lariana","id_staz":"S01416","id_reg":1},"geometry":{"type":"Point","coordinates":[9.335175,45.895864]}},{"type":"Feature","properties":{"name":"Abbasanta","id_staz":"S12873","id_reg":20},"geometry":{"type":"Point","coordinates":[8.817733,40.128801]}},{"type":"Feature","properties":{"name":"Abbiategrasso","id_staz":"S01062","id_reg":1},"geometry":{"type":"Point","coordinates":[8.921305,45.400631]}},{"type":"Feature","properties":{"name":"Acate","id_staz":"S12409","id_reg":14},"geometry":{"type":"Point","coordinates":[14.42545,36.996592]}},{"type":"Feature","properties":{"name":"Acciano","id_staz":"S07423","id_reg":19},"geometry":{"type":"Point","coordinates":[13.711345,42.175994]}},{"type":"Feature","properties":{"name":"Acerra","id_staz":"S09215","id_reg":18},"geometry":{"type":"Point","coordinates":[14.372243,40.939066]}},{"type":"Feature","properties":{"name":"Acireale","id_staz":"S12328","id_reg":14},"geometry":{"type":"Point","coordinates":[15.163697,37.600514]}},{"type":"Feature","properties":{"name":"Acqua Acetosa","id_staz":"S08715","id_reg":5},"geometry":{"type":"Point","coordinates":[12.616449,41.794294]}},{"type":"Feature","properties":{"name":"Acquafredda","id_staz":"S11722","id_reg":15},"geometry":{"type":"Point","coordinates":[15.671846,40.035527]}},{"type":"Feature","properties":{"name":"Acquanegra Cremonese","id_staz":"S01913","id_reg":1},"geometry":{"type":"Point","coordinates":[9.888456,45.172102]}},{"type":"Feature","properties":{"name":"Acquappesa","id_staz":"S11736","id_reg":17},"geometry":{"type":"Point","coordinates":[15.955992,39.48648]}},{"type":"Feature","properties":{"name":"Acquaviva","id_staz":"S12209","id_reg":14},"geometry":{"type":"Point","coordinates":[13.674927,37.570258]}},{"type":"Feature","properties":{"name":"Acquaviva Delle Fonti","id_staz":"S11504","id_reg":16},"geometry":{"type":"Point","coordinates":[16.839826,40.892806]}},{"type":"Feature","properties":{"name":"Acquedolci-S.Fratello","id_staz":"S12026","id_reg":14},"geometry":{"type":"Point","coordinates":[14.587597,38.058459]}},{"type":"Feature","properties":{"name":"Acqui Terme","id_staz":"S00867","id_reg":3},"geometry":{"type":"Point","coordinates":[8.474482,44.67407]}},{"type":"Feature","properties":{"name":"Acri Bisignano Luzzi","id_staz":"S11907","id_reg":17},"geometry":{"type":"Point","coordinates":[16.245177,39.441389]}},{"type":"Feature","properties":{"name":"Adria","id_staz":"S05420","id_reg":12},"geometry":{"type":"Point","coordinates":[12.054228,45.06058]}},{"type":"Feature","properties":{"name":"Africo Nuovo","id_staz":"S11872","id_reg":17},"geometry":{"type":"Point","coordinates":[16.144283,38.053759]}},{"type":"Feature","properties":{"name":"Agliano Castelnuovo Calcea","id_staz":"S00804","id_reg":3},"geometry":{"type":"Point","coordinates":[8.267723,44.786108]}},{"type":"Feature","properties":{"name":"Agrigento Bassa","id_staz":"S12213","id_reg":14},"geometry":{"type":"Point","coordinates":[13.588094,37.319148]}},{"type":"Feature","properties":{"name":"Agrigento Centrale","id_staz":"S12216","id_reg":14},"geometry":{"type":"Point","coordinates":[13.584412,37.309051]}},{"type":"Feature","properties":{"name":"Agropoli Castellabate","id_staz":"S11705","id_reg":18},"geometry":{"type":"Point","coordinates":[15.002053,40.351521]}},{"type":"Feature","properties":{"name":"Airasca","id_staz":"S00514","id_reg":3},"geometry":{"type":"Point","coordinates":[7.483536,44.928093]}},{"type":"Feature","properties":{"name":"Airole","id_staz":"S04481","id_reg":2},"geometry":{"type":"Point","coordinates":[7.552757,43.870494]}},{"type":"Feature","properties":{"name":"Airuno","id_staz":"S01515","id_reg":1},"geometry":{"type":"Point","coordinates":[9.422066,45.754086]}},{"type":"Feature","properties":{"name":"Ala","id_staz":"S02049","id_reg":9},"geometry":{"type":"Point","coordinates":[10.996775,45.760087]}},{"type":"Feature","properties":{"name":"Alanno","id_staz":"S07708","id_reg":19},"geometry":{"type":"Point","coordinates":[14.019595,42.287185]}},{"type":"Feature","properties":{"name":"Alano Fener Valdobbiadene","id_staz":"S02566","id_reg":12},"geometry":{"type":"Point","coordinates":[11.944546,45.90229]}},{"type":"Feature","properties":{"name":"Alassio","id_staz":"S04515","id_reg":2},"geometry":{"type":"Point","coordinates":[8.17112,44.007889]}},{"type":"Feature","properties":{"name":"Alba","id_staz":"S00825","id_reg":3},"geometry":{"type":"Point","coordinates":[8.030629,44.697713]}},{"type":"Feature","properties":{"name":"Alba Adriatica Nereto Contr.","id_staz":"S07800","id_reg":19},"geometry":{"type":"Point","coordinates":[13.91733,42.83438]}},{"type":"Feature","properties":{"name":"Albacina","id_staz":"S07207","id_reg":11},"geometry":{"type":"Point","coordinates":[12.986501,43.345686]}},{"type":"Feature","properties":{"name":"Albano Di Lucania","id_staz":"S11453","id_reg":15},"geometry":{"type":"Point","coordinates":[16.021247,40.574707]}},{"type":"Feature","properties":{"name":"Albano Laziale","id_staz":"S08704","id_reg":5},"geometry":{"type":"Point","coordinates":[12.658056,41.72632]}},{"type":"Feature","properties":{"name":"Albano S.Alessandro","id_staz":"S01534","id_reg":1},"geometry":{"type":"Point","coordinates":[9.768027,45.682744]}},{"type":"Feature","properties":{"name":"Albanova","id_staz":"S09004","id_reg":18},"geometry":{"type":"Point","coordinates":[14.128596,40.996117]}},{"type":"Feature","properties":{"name":"Albaredo","id_staz":"S02538","id_reg":12},"geometry":{"type":"Point","coordinates":[12.015104,45.670265]}},{"type":"Feature","properties":{"name":"Albate Camerlata","id_staz":"S01310","id_reg":1},"geometry":{"type":"Point","coordinates":[9.073461,45.777371]}},{"type":"Feature","properties":{"name":"Albate-Trecallo","id_staz":"S01450","id_reg":1},"geometry":{"type":"Point","coordinates":[9.095752,45.777391]}},{"type":"Feature","properties":{"name":"Albenga","id_staz":"S04516","id_reg":2},"geometry":{"type":"Point","coordinates":[8.221663,44.04722]}},{"type":"Feature","properties":{"name":"Alberese","id_staz":"S08001","id_reg":13},"geometry":{"type":"Point","coordinates":[11.1352,42.634158]}},{"type":"Feature","properties":{"name":"Albinia","id_staz":"S08003","id_reg":13},"geometry":{"type":"Point","coordinates":[11.21134,42.502165]}},{"type":"Feature","properties":{"name":"Albisola","id_staz":"S04529","id_reg":2},"geometry":{"type":"Point","coordinates":[8.512092,44.33469]}},{"type":"Feature","properties":{"name":"Albizzate Solbiate Arno","id_staz":"S01209","id_reg":1},"geometry":{"type":"Point","coordinates":[8.80621,45.724117]}},{"type":"Feature","properties":{"name":"Albonese","id_staz":"S00033","id_reg":1},"geometry":{"type":"Point","coordinates":[8.714601,45.297785]}},{"type":"Feature","properties":{"name":"Albuzzano","id_staz":"S01863","id_reg":1},"geometry":{"type":"Point","coordinates":[9.261624,45.172504]}},{"type":"Feature","properties":{"name":"Alcamo Diramazione","id_staz":"S12150","id_reg":14},"geometry":{"type":"Point","coordinates":[12.915916,37.978894]}},{"type":"Feature","properties":{"name":"Alcantara","id_staz":"S12320","id_reg":14},"geometry":{"type":"Point","coordinates":[15.251158,37.82145]}},{"type":"Feature","properties":{"name":"Alessandria","id_staz":"S00470","id_reg":3},"geometry":{"type":"Point","coordinates":[8.606498,44.909091]}},{"type":"Feature","properties":{"name":"Alfedena-Scontrone","id_staz":"S08908","id_reg":19},"geometry":{"type":"Point","coordinates":[14.044662,41.738222]}},{"type":"Feature","properties":{"name":"Alfonsine","id_staz":"S05808","id_reg":8},"geometry":{"type":"Point","coordinates":[12.039155,44.512364]}},{"type":"Feature","properties":{"name":"Alice Belcolle","id_staz":"S00809","id_reg":3},"geometry":{"type":"Point","coordinates":[8.440076,44.722636]}},{"type":"Feature","properties":{"name":"Ali` Terme","id_staz":"S12310","id_reg":14},"geometry":{"type":"Point","coordinates":[15.435184,38.013952]}},{"type":"Feature","properties":{"name":"Allerona-Castel Viscardo","id_staz":"S08202","id_reg":6},"geometry":{"type":"Point","coordinates":[12.035236,42.78502]}},{"type":"Feature","properties":{"name":"Alpignano","id_staz":"S00216","id_reg":3},"geometry":{"type":"Point","coordinates":[7.523745,45.091077]}},{"type":"Feature","properties":{"name":"Altamura","id_staz":"S11307","id_reg":16},"geometry":{"type":"Point","coordinates":[16.551739,40.837666]}},{"type":"Feature","properties":{"name":"Altare","id_staz":"S04810","id_reg":2},"geometry":{"type":"Point","coordinates":[8.332753,44.336169]}},{"type":"Feature","properties":{"name":"Altavilla Irpina","id_staz":"S09511","id_reg":18},"geometry":{"type":"Point","coordinates":[14.782833,41.015265]}},{"type":"Feature","properties":{"name":"Altavilla M.","id_staz":"S12011","id_reg":14},"geometry":{"type":"Point","coordinates":[13.554421,38.048392]}},{"type":"Feature","properties":{"name":"Altavilla Tavernelle","id_staz":"S02444","id_reg":12},"geometry":{"type":"Point","coordinates":[11.454702,45.511805]}},{"type":"Feature","properties":{"name":"Altopascio","id_staz":"S06407","id_reg":13},"geometry":{"type":"Point","coordinates":[10.672754,43.817418]}},{"type":"Feature","properties":{"name":"Alviano","id_staz":"S08206","id_reg":6},"geometry":{"type":"Point","coordinates":[12.259583,42.591917]}},{"type":"Feature","properties":{"name":"Amantea","id_staz":"S11744","id_reg":17},"geometry":{"type":"Point","coordinates":[16.068448,39.134353]}},{"type":"Feature","properties":{"name":"Ambivere Mapello","id_staz":"S01527","id_reg":1},"geometry":{"type":"Point","coordinates":[9.550444,45.722163]}},{"type":"Feature","properties":{"name":"Amendola","id_staz":"S11051","id_reg":16},"geometry":{"type":"Point","coordinates":[15.732569,41.518025]}},{"type":"Feature","properties":{"name":"Amendolara Oriolo","id_staz":"S11807","id_reg":17},"geometry":{"type":"Point","coordinates":[16.60308,39.933731]}},{"type":"Feature","properties":{"name":"Amorosi Melizzano","id_staz":"S09306","id_reg":18},"geometry":{"type":"Point","coordinates":[14.470759,41.173509]}},{"type":"Feature","properties":{"name":"Anagni-Fiuggi","id_staz":"S08658","id_reg":5},"geometry":{"type":"Point","coordinates":[13.09597,41.71037]}},{"type":"Feature","properties":{"name":"Ancona","id_staz":"S07113","id_reg":11},"geometry":{"type":"Point","coordinates":[13.497665,43.607734]}},{"type":"Feature","properties":{"name":"Ancona Marittima","id_staz":"S07116","id_reg":11},"geometry":{"type":"Point","coordinates":[13.50911,43.619445]}},{"type":"Feature","properties":{"name":"Ancona Torrette","id_staz":"S07015","id_reg":11},"geometry":{"type":"Point","coordinates":[13.455777,43.609936]}},{"type":"Feature","properties":{"name":"Anconetta","id_staz":"S02141","id_reg":12},"geometry":{"type":"Point","coordinates":[11.567865,45.565249]}},{"type":"Feature","properties":{"name":"Andora","id_staz":"S04513","id_reg":2},"geometry":{"type":"Point","coordinates":[8.139319,43.952003]}},{"type":"Feature","properties":{"name":"Angri","id_staz":"S09812","id_reg":18},"geometry":{"type":"Point","coordinates":[14.575366,40.746404]}},{"type":"Feature","properties":{"name":"Anguillara","id_staz":"S08318","id_reg":5},"geometry":{"type":"Point","coordinates":[12.304978,42.068133]}},{"type":"Feature","properties":{"name":"Annone Veneto","id_staz":"S02769","id_reg":12},"geometry":{"type":"Point","coordinates":[12.680334,45.774904]}},{"type":"Feature","properties":{"name":"Antignano","id_staz":"S06727","id_reg":13},"geometry":{"type":"Point","coordinates":[10.328827,43.492482]}},{"type":"Feature","properties":{"name":"Antrodoco Borgo Velino","id_staz":"S07408","id_reg":5},"geometry":{"type":"Point","coordinates":[13.076193,42.415393]}},{"type":"Feature","properties":{"name":"Antrodoco Centro","id_staz":"S07435","id_reg":5},"geometry":{"type":"Point","coordinates":[13.07096,42.409844]}},{"type":"Feature","properties":{"name":"Anversa-Villalago-Scanno","id_staz":"S08537","id_reg":19},"geometry":{"type":"Point","coordinates":[13.835618,42.017261]}},{"type":"Feature","properties":{"name":"Anzano Del Parco","id_staz":"S01453","id_reg":1},"geometry":{"type":"Point","coordinates":[9.202676,45.764965]}},{"type":"Feature","properties":{"name":"Anzio","id_staz":"S08709","id_reg":5},"geometry":{"type":"Point","coordinates":[12.633205,41.4532]}},{"type":"Feature","properties":{"name":"Anzio Colonia","id_staz":"S08713","id_reg":5},"geometry":{"type":"Point","coordinates":[12.617442,41.459893]}},{"type":"Feature","properties":{"name":"Aosta","id_staz":"S00137","id_reg":4},"geometry":{"type":"Point","coordinates":[7.322424,45.73407]}},{"type":"Feature","properties":{"name":"Aosta Istituto","id_staz":"S00143","id_reg":4},"geometry":{"type":"Point","coordinates":[7.303076,45.732938]}},{"type":"Feature","properties":{"name":"Aosta Viale Europa","id_staz":"S00146","id_reg":4},"geometry":{"type":"Point","coordinates":[7.297371,45.733294]}},{"type":"Feature","properties":{"name":"Apice S.Arcangelo Bonito","id_staz":"S09314","id_reg":18},"geometry":{"type":"Point","coordinates":[14.918733,41.140927]}},{"type":"Feature","properties":{"name":"Appiano","id_staz":"S08328","id_reg":5},"geometry":{"type":"Point","coordinates":[12.43838,41.909342]}},{"type":"Feature","properties":{"name":"Apricena","id_staz":"S11024","id_reg":16},"geometry":{"type":"Point","coordinates":[15.387809,41.77664]}},{"type":"Feature","properties":{"name":"Aprilia","id_staz":"S08705","id_reg":5},"geometry":{"type":"Point","coordinates":[12.639126,41.592386]}},{"type":"Feature","properties":{"name":"Aquilonia","id_staz":"S09623","id_reg":18},"geometry":{"type":"Point","coordinates":[15.541249,40.940252]}},{"type":"Feature","properties":{"name":"Aragona Caldare","id_staz":"S12370","id_reg":14},"geometry":{"type":"Point","coordinates":[13.636837,37.381097]}},{"type":"Feature","properties":{"name":"Arbia","id_staz":"S06811","id_reg":13},"geometry":{"type":"Point","coordinates":[11.406225,43.294393]}},{"type":"Feature","properties":{"name":"Arce","id_staz":"S08861","id_reg":5},"geometry":{"type":"Point","coordinates":[13.571848,41.583695]}},{"type":"Feature","properties":{"name":"Arcisate","id_staz":"S01203","id_reg":1},"geometry":{"type":"Point","coordinates":[8.86241,45.858579]}},{"type":"Feature","properties":{"name":"Arcola","id_staz":"S06006","id_reg":2},"geometry":{"type":"Point","coordinates":[9.914649,44.118651]}},{"type":"Feature","properties":{"name":"Arcore","id_staz":"S01510","id_reg":1},"geometry":{"type":"Point","coordinates":[9.322798,45.623493]}},{"type":"Feature","properties":{"name":"Ardara","id_staz":"S12817","id_reg":20},"geometry":{"type":"Point","coordinates":[8.818996,40.632139]}},{"type":"Feature","properties":{"name":"Ardenno Masino","id_staz":"S01427","id_reg":1},"geometry":{"type":"Point","coordinates":[9.651374,46.16198]}},{"type":"Feature","properties":{"name":"Ardore","id_staz":"S11853","id_reg":17},"geometry":{"type":"Point","coordinates":[16.207311,38.175698]}},{"type":"Feature","properties":{"name":"Arena Po","id_staz":"S01947","id_reg":1},"geometry":{"type":"Point","coordinates":[9.360394,45.082065]}},{"type":"Feature","properties":{"name":"Arenzano","id_staz":"S04533","id_reg":2},"geometry":{"type":"Point","coordinates":[8.678322,44.403089]}},{"type":"Feature","properties":{"name":"Arezzo","id_staz":"S06915","id_reg":13},"geometry":{"type":"Point","coordinates":[11.874189,43.461725]}},{"type":"Feature","properties":{"name":"Argenta","id_staz":"S05804","id_reg":8},"geometry":{"type":"Point","coordinates":[11.841267,44.616867]}},{"type":"Feature","properties":{"name":"Ariano Irpino","id_staz":"S09316","id_reg":18},"geometry":{"type":"Point","coordinates":[15.117508,41.181883]}},{"type":"Feature","properties":{"name":"Arona","id_staz":"S01020","id_reg":3},"geometry":{"type":"Point","coordinates":[8.559075,45.755392]}},{"type":"Feature","properties":{"name":"Arpino","id_staz":"S08859","id_reg":5},"geometry":{"type":"Point","coordinates":[13.59959,41.648296]}},{"type":"Feature","properties":{"name":"Arquata Scrivia","id_staz":"S04207","id_reg":3},"geometry":{"type":"Point","coordinates":[8.885342,44.692533]}},{"type":"Feature","properties":{"name":"Arqua`","id_staz":"S05707","id_reg":12},"geometry":{"type":"Point","coordinates":[11.748518,45.006465]}},{"type":"Feature","properties":{"name":"Arsoli","id_staz":"S08516","id_reg":5},"geometry":{"type":"Point","coordinates":[13.013064,42.045852]}},{"type":"Feature","properties":{"name":"Artegna","id_staz":"S03021","id_reg":10},"geometry":{"type":"Point","coordinates":[13.162328,46.23115]}},{"type":"Feature","properties":{"name":"Arvier","id_staz":"S00134","id_reg":4},"geometry":{"type":"Point","coordinates":[7.166681,45.704259]}},{"type":"Feature","properties":{"name":"Ascea","id_staz":"S11711","id_reg":18},"geometry":{"type":"Point","coordinates":[15.172626,40.140955]}},{"type":"Feature","properties":{"name":"Asciano","id_staz":"S06813","id_reg":13},"geometry":{"type":"Point","coordinates":[11.579237,43.235245]}},{"type":"Feature","properties":{"name":"Asciano Monte Oliveto Maggiore","id_staz":"S06825","id_reg":13},"geometry":{"type":"Point","coordinates":[11.563621,43.231706]}},{"type":"Feature","properties":{"name":"Ascoli Piceno","id_staz":"S07550","id_reg":11},"geometry":{"type":"Point","coordinates":[13.587939,42.855474]}},{"type":"Feature","properties":{"name":"Ascoli Satriano","id_staz":"S11203","id_reg":16},"geometry":{"type":"Point","coordinates":[15.547828,41.219859]}},{"type":"Feature","properties":{"name":"Asola","id_staz":"S01847","id_reg":1},"geometry":{"type":"Point","coordinates":[10.402313,45.220454]}},{"type":"Feature","properties":{"name":"Assemini","id_staz":"S12889","id_reg":20},"geometry":{"type":"Point","coordinates":[8.997936,39.287603]}},{"type":"Feature","properties":{"name":"Assisi","id_staz":"S07008","id_reg":6},"geometry":{"type":"Point","coordinates":[12.585304,43.058921]}},{"type":"Feature","properties":{"name":"Asso","id_staz":"S01101","id_reg":1},"geometry":{"type":"Point","coordinates":[9.268513,45.855228]}},{"type":"Feature","properties":{"name":"Asti","id_staz":"S00462","id_reg":3},"geometry":{"type":"Point","coordinates":[8.208112,44.89479]}},{"type":"Feature","properties":{"name":"Atena","id_staz":"S09904","id_reg":18},"geometry":{"type":"Point","coordinates":[15.536094,40.456676]}},{"type":"Feature","properties":{"name":"Attigliano","id_staz":"S08207","id_reg":6},"geometry":{"type":"Point","coordinates":[12.294761,42.518054]}},{"type":"Feature","properties":{"name":"Augusta","id_staz":"S12345","id_reg":14},"geometry":{"type":"Point","coordinates":[15.218628,37.24334]}},{"type":"Feature","properties":{"name":"Auletta","id_staz":"S09902","id_reg":18},"geometry":{"type":"Point","coordinates":[15.426706,40.534934]}},{"type":"Feature","properties":{"name":"Aulla","id_staz":"S06168","id_reg":13},"geometry":{"type":"Point","coordinates":[9.970632,44.209662]}},{"type":"Feature","properties":{"name":"Aulla Lunigiana","id_staz":"S06013","id_reg":13},"geometry":{"type":"Point","coordinates":[9.970015,44.210555]}},{"type":"Feature","properties":{"name":"Aurisina","id_staz":"S03550","id_reg":10},"geometry":{"type":"Point","coordinates":[13.687706,45.753943]}},{"type":"Feature","properties":{"name":"Avellino","id_staz":"S09514","id_reg":18},"geometry":{"type":"Point","coordinates":[14.820586,40.921612]}},{"type":"Feature","properties":{"name":"Aversa","id_staz":"S09006","id_reg":18},"geometry":{"type":"Point","coordinates":[14.218578,40.973323]}},{"type":"Feature","properties":{"name":"Avezzano","id_staz":"S08526","id_reg":19},"geometry":{"type":"Point","coordinates":[13.426446,42.039495]}},{"type":"Feature","properties":{"name":"Aviano","id_staz":"S03087","id_reg":10},"geometry":{"type":"Point","coordinates":[12.590686,46.064362]}},{"type":"Feature","properties":{"name":"Avigliana","id_staz":"S00214","id_reg":3},"geometry":{"type":"Point","coordinates":[7.401096,45.085276]}},{"type":"Feature","properties":{"name":"Avigliano Lucania","id_staz":"S11214","id_reg":15},"geometry":{"type":"Point","coordinates":[15.785619,40.714667]}},{"type":"Feature","properties":{"name":"Avio","id_staz":"S02050","id_reg":9},"geometry":{"type":"Point","coordinates":[10.955842,45.733892]}},{"type":"Feature","properties":{"name":"Avise","id_staz":"S00133","id_reg":4},"geometry":{"type":"Point","coordinates":[7.131285,45.706296]}},{"type":"Feature","properties":{"name":"Avola","id_staz":"S12426","id_reg":14},"geometry":{"type":"Point","coordinates":[15.125733,36.907434]}},{"type":"Feature","properties":{"name":"Bari Centrale","id_staz":"S11119","id_reg":16},"geometry":{"type":"Point","coordinates":[16.869601,41.11774]}},{"type":"Feature","properties":{"name":"Bologna C.Le","id_staz":"S05043","id_reg":8},"geometry":{"type":"Point","coordinates":[11.342267,44.50626]}},{"type":"Feature","properties":{"name":"Badia Polesine","id_staz":"S02370","id_reg":12},"geometry":{"type":"Point","coordinates":[11.484722,45.094439]}},{"type":"Feature","properties":{"name":"Badolato","id_staz":"S11841","id_reg":17},"geometry":{"type":"Point","coordinates":[16.567646,38.572268]}},{"type":"Feature","properties":{"name":"Bagheria","id_staz":"S12008","id_reg":14},"geometry":{"type":"Point","coordinates":[13.507215,38.089905]}},{"type":"Feature","properties":{"name":"Bagnacavallo","id_staz":"S05902","id_reg":8},"geometry":{"type":"Point","coordinates":[11.969398,44.412138]}},{"type":"Feature","properties":{"name":"Bagnara","id_staz":"S11770","id_reg":17},"geometry":{"type":"Point","coordinates":[15.800327,38.282695]}},{"type":"Feature","properties":{"name":"Bagnaria Arsa","id_staz":"S03123","id_reg":10},"geometry":{"type":"Point","coordinates":[13.282026,45.885513]}},{"type":"Feature","properties":{"name":"Bagnasco","id_staz":"S00921","id_reg":3},"geometry":{"type":"Point","coordinates":[8.046132,44.303264]}},{"type":"Feature","properties":{"name":"Bagni Di Lucca","id_staz":"S06308","id_reg":13},"geometry":{"type":"Point","coordinates":[10.551631,44.003447]}},{"type":"Feature","properties":{"name":"Bagni Di Tivoli","id_staz":"S08504","id_reg":5},"geometry":{"type":"Point","coordinates":[12.722208,41.949593]}},{"type":"Feature","properties":{"name":"Bagnoli Agnano Terme","id_staz":"S09102","id_reg":18},"geometry":{"type":"Point","coordinates":[14.166694,40.819444]}},{"type":"Feature","properties":{"name":"Bagnoli Irpino","id_staz":"S09613","id_reg":18},"geometry":{"type":"Point","coordinates":[15.06324,40.83917]}},{"type":"Feature","properties":{"name":"Bagnolo Mella","id_staz":"S01901","id_reg":1},"geometry":{"type":"Point","coordinates":[10.183617,45.428532]}},{"type":"Feature","properties":{"name":"Baiano Di Spoleto","id_staz":"S07224","id_reg":6},"geometry":{"type":"Point","coordinates":[12.663615,42.726238]}},{"type":"Feature","properties":{"name":"Baldichieri","id_staz":"S00460","id_reg":3},"geometry":{"type":"Point","coordinates":[8.091198,44.899204]}},{"type":"Feature","properties":{"name":"Balestrate","id_staz":"S12122","id_reg":14},"geometry":{"type":"Point","coordinates":[13.007374,38.053364]}},{"type":"Feature","properties":{"name":"Balsorano","id_staz":"S08856","id_reg":19},"geometry":{"type":"Point","coordinates":[13.556546,41.809427]}},{"type":"Feature","properties":{"name":"Balvano R.","id_staz":"S09830","id_reg":15},"geometry":{"type":"Point","coordinates":[15.495304,40.649993]}},{"type":"Feature","properties":{"name":"Balzola","id_staz":"S00178","id_reg":3},"geometry":{"type":"Point","coordinates":[8.402174,45.173985]}},{"type":"Feature","properties":{"name":"Bandito","id_staz":"S00732","id_reg":3},"geometry":{"type":"Point","coordinates":[7.819452,44.722075]}},{"type":"Feature","properties":{"name":"Baragiano","id_staz":"S09832","id_reg":15},"geometry":{"type":"Point","coordinates":[15.569206,40.695213]}},{"type":"Feature","properties":{"name":"Baranello","id_staz":"S09458","id_reg":7},"geometry":{"type":"Point","coordinates":[14.596314,41.5176]}},{"type":"Feature","properties":{"name":"Barbianello","id_staz":"S01932","id_reg":1},"geometry":{"type":"Point","coordinates":[9.204165,45.07263]}},{"type":"Feature","properties":{"name":"Barbiano","id_staz":"S05905","id_reg":8},"geometry":{"type":"Point","coordinates":[11.878086,44.387263]}},{"type":"Feature","properties":{"name":"Barbusi","id_staz":"S12971","id_reg":20},"geometry":{"type":"Point","coordinates":[8.501702,39.203024]}},{"type":"Feature","properties":{"name":"Barcellona","id_staz":"S12041","id_reg":14},"geometry":{"type":"Point","coordinates":[15.212499,38.14918]}},{"type":"Feature","properties":{"name":"Bardonecchia","id_staz":"S00202","id_reg":3},"geometry":{"type":"Point","coordinates":[6.709959,45.076447]}},{"type":"Feature","properties":{"name":"Barga Gallicano","id_staz":"S06303","id_reg":13},"geometry":{"type":"Point","coordinates":[10.451938,44.068114]}},{"type":"Feature","properties":{"name":"Bari Palese Macchie","id_staz":"S11118","id_reg":16},"geometry":{"type":"Point","coordinates":[16.766902,41.151583]}},{"type":"Feature","properties":{"name":"Bari Parco Nord","id_staz":"S11148","id_reg":16},"geometry":{"type":"Point","coordinates":[16.837018,41.123916]}},{"type":"Feature","properties":{"name":"Bari Parco Sud","id_staz":"S11125","id_reg":16},"geometry":{"type":"Point","coordinates":[16.914736,41.111822]}},{"type":"Feature","properties":{"name":"Bari S. Spirito","id_staz":"S11116","id_reg":16},"geometry":{"type":"Point","coordinates":[16.746324,41.159653]}},{"type":"Feature","properties":{"name":"Bari S.Andrea","id_staz":"S11513","id_reg":16},"geometry":{"type":"Point","coordinates":[16.830255,41.105467]}},{"type":"Feature","properties":{"name":"Bari S.Giorgio","id_staz":"S11150","id_reg":16},"geometry":{"type":"Point","coordinates":[16.950084,41.093779]}},{"type":"Feature","properties":{"name":"Bari Torre A Mare","id_staz":"S11126","id_reg":16},"geometry":{"type":"Point","coordinates":[16.995772,41.082637]}},{"type":"Feature","properties":{"name":"Baricetta","id_staz":"S05419","id_reg":12},"geometry":{"type":"Point","coordinates":[11.995348,45.060889]}},{"type":"Feature","properties":{"name":"Barile","id_staz":"S11208","id_reg":15},"geometry":{"type":"Point","coordinates":[15.670959,40.943044]}},{"type":"Feature","properties":{"name":"Barletta","id_staz":"S11108","id_reg":16},"geometry":{"type":"Point","coordinates":[16.278867,41.315227]}},{"type":"Feature","properties":{"name":"Baronissi","id_staz":"S09520","id_reg":18},"geometry":{"type":"Point","coordinates":[14.77224,40.743779]}},{"type":"Feature","properties":{"name":"Baschi-Montecchio","id_staz":"S08204","id_reg":6},"geometry":{"type":"Point","coordinates":[12.203496,42.68685]}},{"type":"Feature","properties":{"name":"Basiliano","id_staz":"S02832","id_reg":10},"geometry":{"type":"Point","coordinates":[13.109233,46.012737]}},{"type":"Feature","properties":{"name":"Bassano Del Grappa","id_staz":"S02520","id_reg":12},"geometry":{"type":"Point","coordinates":[11.741525,45.766697]}},{"type":"Feature","properties":{"name":"Bassano In Teverina","id_staz":"S08208","id_reg":6},"geometry":{"type":"Point","coordinates":[12.333556,42.483551]}},{"type":"Feature","properties":{"name":"Bassano Romano","id_staz":"S08312","id_reg":5},"geometry":{"type":"Point","coordinates":[12.152302,42.212444]}},{"type":"Feature","properties":{"name":"Bastia","id_staz":"S07007","id_reg":6},"geometry":{"type":"Point","coordinates":[12.547735,43.07133]}},{"type":"Feature","properties":{"name":"Bastia Mondovi`","id_staz":"S00908","id_reg":3},"geometry":{"type":"Point","coordinates":[7.891671,44.439398]}},{"type":"Feature","properties":{"name":"Battaglia Terme","id_staz":"S05702","id_reg":12},"geometry":{"type":"Point","coordinates":[11.77838,45.291475]}},{"type":"Feature","properties":{"name":"Battipaglia","id_staz":"S09823","id_reg":18},"geometry":{"type":"Point","coordinates":[14.98324,40.605789]}},{"type":"Feature","properties":{"name":"Bauladu Milis","id_staz":"S12875","id_reg":20},"geometry":{"type":"Point","coordinates":[8.687123,40.020722]}},{"type":"Feature","properties":{"name":"Baveno","id_staz":"S01015","id_reg":3},"geometry":{"type":"Point","coordinates":[8.502121,45.909105]}},{"type":"Feature","properties":{"name":"Bazzana","id_staz":"S00807","id_reg":3},"geometry":{"type":"Point","coordinates":[8.401557,44.777094]}},{"type":"Feature","properties":{"name":"Beaulard","id_staz":"S00203","id_reg":3},"geometry":{"type":"Point","coordinates":[6.759713,45.046495]}},{"type":"Feature","properties":{"name":"Beffi","id_staz":"S07422","id_reg":19},"geometry":{"type":"Point","coordinates":[13.660759,42.197341]}},{"type":"Feature","properties":{"name":"Beinette","id_staz":"S00901","id_reg":3},"geometry":{"type":"Point","coordinates":[7.644884,44.36782]}},{"type":"Feature","properties":{"name":"Belgioioso","id_staz":"S01864","id_reg":1},"geometry":{"type":"Point","coordinates":[9.316875,45.16456]}},{"type":"Feature","properties":{"name":"Belgirate","id_staz":"S01017","id_reg":3},"geometry":{"type":"Point","coordinates":[8.570821,45.843337]}},{"type":"Feature","properties":{"name":"Bella Muro","id_staz":"S09831","id_reg":15},"geometry":{"type":"Point","coordinates":[15.542936,40.700914]}},{"type":"Feature","properties":{"name":"Bellano Tartavelle Terme","id_staz":"S01409","id_reg":1},"geometry":{"type":"Point","coordinates":[9.302776,46.039448]}},{"type":"Feature","properties":{"name":"Bellante Ripattone","id_staz":"S07902","id_reg":19},"geometry":{"type":"Point","coordinates":[13.837978,42.705775]}},{"type":"Feature","properties":{"name":"Bellaria","id_staz":"S05817","id_reg":8},"geometry":{"type":"Point","coordinates":[12.461168,44.150249]}},{"type":"Feature","properties":{"name":"Bellavista","id_staz":"S11512","id_reg":16},"geometry":{"type":"Point","coordinates":[17.176892,40.517077]}},{"type":"Feature","properties":{"name":"Bellinzago","id_staz":"S00985","id_reg":3},"geometry":{"type":"Point","coordinates":[8.627652,45.566681]}},{"type":"Feature","properties":{"name":"Bellisio Solfare","id_staz":"S07061","id_reg":11},"geometry":{"type":"Point","coordinates":[12.823977,43.520379]}},{"type":"Feature","properties":{"name":"Belluno","id_staz":"S02559","id_reg":12},"geometry":{"type":"Point","coordinates":[12.209703,46.141594]}},{"type":"Feature","properties":{"name":"Belmonte Calabro","id_staz":"S11743","id_reg":17},"geometry":{"type":"Point","coordinates":[16.064515,39.164427]}},{"type":"Feature","properties":{"name":"Belvedere Marittimo","id_staz":"S11732","id_reg":17},"geometry":{"type":"Point","coordinates":[15.853039,39.616549]}},{"type":"Feature","properties":{"name":"Benevento","id_staz":"S09311","id_reg":18},"geometry":{"type":"Point","coordinates":[14.769998,41.141901]}},{"type":"Feature","properties":{"name":"Benevento Arco Traiano","id_staz":"S09530","id_reg":18},"geometry":{"type":"Point","coordinates":[14.777662,41.136834]}},{"type":"Feature","properties":{"name":"Benevento Porta Rufina","id_staz":"S09509","id_reg":18},"geometry":{"type":"Point","coordinates":[14.784315,41.123564]}},{"type":"Feature","properties":{"name":"Berceto","id_staz":"S06158","id_reg":8},"geometry":{"type":"Point","coordinates":[9.931759,44.555912]}},{"type":"Feature","properties":{"name":"Berchidda","id_staz":"S12859","id_reg":20},"geometry":{"type":"Point","coordinates":[9.181312,40.772052]}},{"type":"Feature","properties":{"name":"Bergamasco","id_staz":"S00838","id_reg":3},"geometry":{"type":"Point","coordinates":[8.461447,44.819891]}},{"type":"Feature","properties":{"name":"Bergamo","id_staz":"S01529","id_reg":1},"geometry":{"type":"Point","coordinates":[9.675082,45.690271]}},{"type":"Feature","properties":{"name":"Bernalda","id_staz":"S11460","id_reg":15},"geometry":{"type":"Point","coordinates":[16.682281,40.397616]}},{"type":"Feature","properties":{"name":"Besana","id_staz":"S01488","id_reg":1},"geometry":{"type":"Point","coordinates":[9.28288,45.702824]}},{"type":"Feature","properties":{"name":"Besnate","id_staz":"S01145","id_reg":1},"geometry":{"type":"Point","coordinates":[8.761072,45.695409]}},{"type":"Feature","properties":{"name":"Besozzo","id_staz":"S01141","id_reg":1},"geometry":{"type":"Point","coordinates":[8.662997,45.842188]}},{"type":"Feature","properties":{"name":"Beura Cardezza","id_staz":"S01007","id_reg":3},"geometry":{"type":"Point","coordinates":[8.289627,46.068341]}},{"type":"Feature","properties":{"name":"Bevera","id_staz":"S04482","id_reg":2},"geometry":{"type":"Point","coordinates":[7.579157,43.825303]}},{"type":"Feature","properties":{"name":"Bevilacqua","id_staz":"S02391","id_reg":12},"geometry":{"type":"Point","coordinates":[11.398643,45.230145]}},{"type":"Feature","properties":{"name":"Biagioni Lagacci","id_staz":"S05119","id_reg":8},"geometry":{"type":"Point","coordinates":[10.948257,44.086359]}},{"type":"Feature","properties":{"name":"Bianco","id_staz":"S11855","id_reg":17},"geometry":{"type":"Point","coordinates":[16.153348,38.089072]}},{"type":"Feature","properties":{"name":"Bianze`","id_staz":"S00238","id_reg":3},"geometry":{"type":"Point","coordinates":[8.115523,45.309488]}},{"type":"Feature","properties":{"name":"Bianzone","id_staz":"S01438","id_reg":1},"geometry":{"type":"Point","coordinates":[10.112507,46.179383]}},{"type":"Feature","properties":{"name":"Biassono-Lesmo Parco","id_staz":"S01483","id_reg":1},"geometry":{"type":"Point","coordinates":[9.298408,45.632209]}},{"type":"Feature","properties":{"name":"Bibiana","id_staz":"S00522","id_reg":3},"geometry":{"type":"Point","coordinates":[7.285727,44.809941]}},{"type":"Feature","properties":{"name":"Bicocca","id_staz":"S12338","id_reg":14},"geometry":{"type":"Point","coordinates":[15.044594,37.460617]}},{"type":"Feature","properties":{"name":"Biella Chiavazza","id_staz":"S00970","id_reg":3},"geometry":{"type":"Point","coordinates":[8.066787,45.568084]}},{"type":"Feature","properties":{"name":"Biella S.Paolo","id_staz":"S00070","id_reg":3},"geometry":{"type":"Point","coordinates":[8.067541,45.557334]}},{"type":"Feature","properties":{"name":"Biforco","id_staz":"S06611","id_reg":13},"geometry":{"type":"Point","coordinates":[11.602243,44.068431]}},{"type":"Feature","properties":{"name":"Binario S.Marco Vecchio","id_staz":"S06950","id_reg":13},"geometry":{"type":"Point","coordinates":[11.267403,43.790336]}},{"type":"Feature","properties":{"name":"Bisceglie","id_staz":"S11113","id_reg":16},"geometry":{"type":"Point","coordinates":[16.499484,41.235445]}},{"type":"Feature","properties":{"name":"Bistagno","id_staz":"S00870","id_reg":3},"geometry":{"type":"Point","coordinates":[8.372057,44.659256]}},{"type":"Feature","properties":{"name":"Bisuschio Viggiu","id_staz":"S01202","id_reg":1},"geometry":{"type":"Point","coordinates":[8.887544,45.870658]}},{"type":"Feature","properties":{"name":"Bitetto Palo Del Colle","id_staz":"S11501","id_reg":16},"geometry":{"type":"Point","coordinates":[16.74053,41.041481]}},{"type":"Feature","properties":{"name":"Bivio D`Aurisina","id_staz":"S03313","id_reg":10},"geometry":{"type":"Point","coordinates":[13.655777,45.754253]}},{"type":"Feature","properties":{"name":"Boccia Al Mauro","id_staz":"S09763","id_reg":18},"geometry":{"type":"Point","coordinates":[14.471878,40.732794]}},{"type":"Feature","properties":{"name":"Bogliasco","id_staz":"S04709","id_reg":2},"geometry":{"type":"Point","coordinates":[9.066042,44.379207]}},{"type":"Feature","properties":{"name":"Boiano","id_staz":"S09453","id_reg":7},"geometry":{"type":"Point","coordinates":[14.474551,41.487883]}},{"type":"Feature","properties":{"name":"Bolgheri","id_staz":"S06028","id_reg":13},"geometry":{"type":"Point","coordinates":[10.550548,43.244664]}},{"type":"Feature","properties":{"name":"Bologna Borgo Panigale","id_staz":"S05100","id_reg":8},"geometry":{"type":"Point","coordinates":[11.284728,44.515024]}},{"type":"Feature","properties":{"name":"Bologna C.Le/Av","id_staz":"S05046","id_reg":8},"geometry":{"type":"Point","coordinates":[11.342267,44.50626]}},{"type":"Feature","properties":{"name":"Bologna Corticella","id_staz":"S05725","id_reg":8},"geometry":{"type":"Point","coordinates":[11.35401,44.551985]}},{"type":"Feature","properties":{"name":"Bologna Fiere","id_staz":"S05020","id_reg":8},"geometry":{"type":"Point","coordinates":[11.368809,44.512742]}},{"type":"Feature","properties":{"name":"Bologna Mazzini","id_staz":"S05140","id_reg":8},"geometry":{"type":"Point","coordinates":[11.376271,44.482284]}},{"type":"Feature","properties":{"name":"Bologna Ravone","id_staz":"S05042","id_reg":8},"geometry":{"type":"Point","coordinates":[11.320029,44.510244]}},{"type":"Feature","properties":{"name":"Bologna S.Ruffillo","id_staz":"S05130","id_reg":8},"geometry":{"type":"Point","coordinates":[11.372967,44.462657]}},{"type":"Feature","properties":{"name":"Bolzano ","id_staz":"S02026","id_reg":22},"geometry":{"type":"Point","coordinates":[11.358556,46.496346]}},{"type":"Feature","properties":{"name":"Bolzano Novarese","id_staz":"S00014","id_reg":3},"geometry":{"type":"Point","coordinates":[8.440754,45.759357]}},{"type":"Feature","properties":{"name":"Bolzano Sud ","id_staz":"S02226","id_reg":9},"geometry":{"type":"Point","coordinates":[11.33334,46.472617]}},{"type":"Feature","properties":{"name":"Bonassola","id_staz":"S04730","id_reg":2},"geometry":{"type":"Point","coordinates":[9.582673,44.184867]}},{"type":"Feature","properties":{"name":"Bonefro S.Croce","id_staz":"S09464","id_reg":7},"geometry":{"type":"Point","coordinates":[14.860799,41.710522]}},{"type":"Feature","properties":{"name":"Bonferraro","id_staz":"S02383","id_reg":12},"geometry":{"type":"Point","coordinates":[11.009247,45.185651]}},{"type":"Feature","properties":{"name":"Bonorva","id_staz":"S12867","id_reg":20},"geometry":{"type":"Point","coordinates":[8.760707,40.417763]}},{"type":"Feature","properties":{"name":"Bordighera","id_staz":"S04503","id_reg":2},"geometry":{"type":"Point","coordinates":[7.663504,43.778313]}},{"type":"Feature","properties":{"name":"Borghetto","id_staz":"S02051","id_reg":9},"geometry":{"type":"Point","coordinates":[10.927083,45.696721]}},{"type":"Feature","properties":{"name":"Borghetto Parmense","id_staz":"S06100","id_reg":8},"geometry":{"type":"Point","coordinates":[10.1177,44.837198]}},{"type":"Feature","properties":{"name":"Borghetto Santo Spirito","id_staz":"S04518","id_reg":2},"geometry":{"type":"Point","coordinates":[8.242346,44.109006]}},{"type":"Feature","properties":{"name":"Borgio Verezzi","id_staz":"S04521","id_reg":2},"geometry":{"type":"Point","coordinates":[8.30908,44.157722]}},{"type":"Feature","properties":{"name":"Borgo","id_staz":"S09526","id_reg":18},"geometry":{"type":"Point","coordinates":[14.784092,40.845976]}},{"type":"Feature","properties":{"name":"Borgo A Buggiano","id_staz":"S06410","id_reg":13},"geometry":{"type":"Point","coordinates":[10.730079,43.880724]}},{"type":"Feature","properties":{"name":"Borgo A Mozzano","id_staz":"S06309","id_reg":13},"geometry":{"type":"Point","coordinates":[10.541285,43.977207]}},{"type":"Feature","properties":{"name":"Borgo Fornari Per Voltaggio","id_staz":"S04214","id_reg":2},"geometry":{"type":"Point","coordinates":[8.938295,44.588379]}},{"type":"Feature","properties":{"name":"Borgo Lavezzaro","id_staz":"S00032","id_reg":3},"geometry":{"type":"Point","coordinates":[8.703242,45.318783]}},{"type":"Feature","properties":{"name":"Borgo Revel","id_staz":"S00171","id_reg":3},"geometry":{"type":"Point","coordinates":[8.02021,45.189827]}},{"type":"Feature","properties":{"name":"Borgo S. Lorenzo","id_staz":"S06604","id_reg":13},"geometry":{"type":"Point","coordinates":[11.380422,43.959822]}},{"type":"Feature","properties":{"name":"Borgo S.L.Rimorelli","id_staz":"S06704","id_reg":13},"geometry":{"type":"Point","coordinates":[11.400076,43.953279]}},{"type":"Feature","properties":{"name":"Borgo S.Martino","id_staz":"S00315","id_reg":3},"geometry":{"type":"Point","coordinates":[8.520661,45.087083]}},{"type":"Feature","properties":{"name":"Borgo San Dalmazzo","id_staz":"S00613","id_reg":3},"geometry":{"type":"Point","coordinates":[7.486111,44.326249]}},{"type":"Feature","properties":{"name":"Borgo Ticino","id_staz":"S00981","id_reg":3},"geometry":{"type":"Point","coordinates":[8.602483,45.691943]}},{"type":"Feature","properties":{"name":"Borgo Val Di Taro","id_staz":"S06161","id_reg":8},"geometry":{"type":"Point","coordinates":[9.781489,44.486522]}},{"type":"Feature","properties":{"name":"Borgo Valsugana Centro","id_staz":"S02313","id_reg":21},"geometry":{"type":"Point","coordinates":[11.453967,46.051182]}},{"type":"Feature","properties":{"name":"Borgo Valsugana Est","id_staz":"S02314","id_reg":9},"geometry":{"type":"Point","coordinates":[11.462119,46.05224]}},{"type":"Feature","properties":{"name":"Borgo Vercelli","id_staz":"S00246","id_reg":3},"geometry":{"type":"Point","coordinates":[8.461474,45.359252]}},{"type":"Feature","properties":{"name":"Borgoforte","id_staz":"S02338","id_reg":1},"geometry":{"type":"Point","coordinates":[10.752388,45.050328]}},{"type":"Feature","properties":{"name":"Borgofranco","id_staz":"S00152","id_reg":3},"geometry":{"type":"Point","coordinates":[7.854612,45.514775]}},{"type":"Feature","properties":{"name":"Borgolombardo","id_staz":"S01830","id_reg":1},"geometry":{"type":"Point","coordinates":[9.27111,45.403856]}},{"type":"Feature","properties":{"name":"Borgomanero","id_staz":"S00016","id_reg":3},"geometry":{"type":"Point","coordinates":[8.468093,45.701054]}},{"type":"Feature","properties":{"name":"Borgone","id_staz":"S00210","id_reg":3},"geometry":{"type":"Point","coordinates":[7.236037,45.123191]}},{"type":"Feature","properties":{"name":"Borgoratto","id_staz":"S00860","id_reg":3},"geometry":{"type":"Point","coordinates":[8.538182,44.835999]}},{"type":"Feature","properties":{"name":"Borgosesia","id_staz":"S00104","id_reg":3},"geometry":{"type":"Point","coordinates":[8.28239,45.716798]}},{"type":"Feature","properties":{"name":"Borore","id_staz":"S12872","id_reg":20},"geometry":{"type":"Point","coordinates":[8.809535,40.218992]}},{"type":"Feature","properties":{"name":"Boschi S.Anna","id_staz":"S02390","id_reg":12},"geometry":{"type":"Point","coordinates":[11.362302,45.217328]}},{"type":"Feature","properties":{"name":"Bosco Redole","id_staz":"S09452","id_reg":7},"geometry":{"type":"Point","coordinates":[14.587884,41.459299]}},{"type":"Feature","properties":{"name":"Boscoreale","id_staz":"S09754","id_reg":18},"geometry":{"type":"Point","coordinates":[14.48017,40.770786]}},{"type":"Feature","properties":{"name":"Botricello","id_staz":"S11829","id_reg":17},"geometry":{"type":"Point","coordinates":[16.857433,38.933943]}},{"type":"Feature","properties":{"name":"Bova Marina","id_staz":"S11860","id_reg":17},"geometry":{"type":"Point","coordinates":[15.923897,37.930269]}},{"type":"Feature","properties":{"name":"Bovalino","id_staz":"S11854","id_reg":17},"geometry":{"type":"Point","coordinates":[16.180584,38.149087]}},{"type":"Feature","properties":{"name":"Bovino Deliceto","id_staz":"S09321","id_reg":16},"geometry":{"type":"Point","coordinates":[15.369255,41.27835]}},{"type":"Feature","properties":{"name":"Bovolone","id_staz":"S02363","id_reg":12},"geometry":{"type":"Point","coordinates":[11.123862,45.254446]}},{"type":"Feature","properties":{"name":"Bozzolo","id_staz":"S01920","id_reg":1},"geometry":{"type":"Point","coordinates":[10.472655,45.107246]}},{"type":"Feature","properties":{"name":"Bra","id_staz":"S00821","id_reg":3},"geometry":{"type":"Point","coordinates":[7.848643,44.693556]}},{"type":"Feature","properties":{"name":"Bracciano","id_staz":"S08315","id_reg":5},"geometry":{"type":"Point","coordinates":[12.173023,42.103667]}},{"type":"Feature","properties":{"name":"Bragno","id_staz":"S04803","id_reg":2},"geometry":{"type":"Point","coordinates":[8.304473,44.371679]}},{"type":"Feature","properties":{"name":"Brancaleone","id_staz":"S11857","id_reg":17},"geometry":{"type":"Point","coordinates":[16.103301,37.965475]}},{"type":"Feature","properties":{"name":"Brandizzo","id_staz":"S00231","id_reg":3},"geometry":{"type":"Point","coordinates":[7.841218,45.178915]}},{"type":"Feature","properties":{"name":"Breil Sur Roya","id_staz":"S00622","id_reg":3},"geometry":{"type":"Point","coordinates":[7.530915,43.890267]}},{"type":"Feature","properties":{"name":"Brenna-Alzate","id_staz":"S01452","id_reg":1},"geometry":{"type":"Point","coordinates":[9.183312,45.754044]}},{"type":"Feature","properties":{"name":"Brennero","id_staz":"S02001","id_reg":22},"geometry":{"type":"Point","coordinates":[11.505711,47.004117]}},{"type":"Feature","properties":{"name":"Brescia","id_staz":"S01717","id_reg":1},"geometry":{"type":"Point","coordinates":[10.212828,45.532315]}},{"type":"Feature","properties":{"name":"Bressana Argine","id_staz":"S01930","id_reg":1},"geometry":{"type":"Point","coordinates":[9.137038,45.072739]}},{"type":"Feature","properties":{"name":"Bressana Bottarone","id_staz":"S01805","id_reg":1},"geometry":{"type":"Point","coordinates":[9.110602,45.086298]}},{"type":"Feature","properties":{"name":"Bressanone","id_staz":"S02014","id_reg":9},"geometry":{"type":"Point","coordinates":[11.649677,46.710088]}},{"type":"Feature","properties":{"name":"Briatico","id_staz":"S11757","id_reg":17},"geometry":{"type":"Point","coordinates":[16.025765,38.725447]}},{"type":"Feature","properties":{"name":"Bricherasio","id_staz":"S00521","id_reg":3},"geometry":{"type":"Point","coordinates":[7.307513,44.824336]}},{"type":"Feature","properties":{"name":"Brindisi","id_staz":"S11136","id_reg":16},"geometry":{"type":"Point","coordinates":[17.938978,40.634339]}},{"type":"Feature","properties":{"name":"Brindisi Di Montagna","id_staz":"S11451","id_reg":15},"geometry":{"type":"Point","coordinates":[15.955795,40.611991]}},{"type":"Feature","properties":{"name":"Brindisi Marittima","id_staz":"S11137","id_reg":16},"geometry":{"type":"Point","coordinates":[17.94863,40.633543]}},{"type":"Feature","properties":{"name":"Briona","id_staz":"S00113","id_reg":3},"geometry":{"type":"Point","coordinates":[8.479541,45.538568]}},{"type":"Feature","properties":{"name":"Brisighella","id_staz":"S06614","id_reg":8},"geometry":{"type":"Point","coordinates":[11.769757,44.220565]}},{"type":"Feature","properties":{"name":"Brolo Ficarra","id_staz":"S12031","id_reg":14},"geometry":{"type":"Point","coordinates":[14.830176,38.159204]}},{"type":"Feature","properties":{"name":"Broni","id_staz":"S01944","id_reg":1},"geometry":{"type":"Point","coordinates":[9.258751,45.066263]}},{"type":"Feature","properties":{"name":"Bronzolo ","id_staz":"S02030","id_reg":9},"geometry":{"type":"Point","coordinates":[11.315833,46.40505]}},{"type":"Feature","properties":{"name":"Brozolo","id_staz":"S00424","id_reg":3},"geometry":{"type":"Point","coordinates":[8.05893,45.121299]}},{"type":"Feature","properties":{"name":"Brunico ","id_staz":"S02107","id_reg":9},"geometry":{"type":"Point","coordinates":[11.929989,46.794922]}},{"type":"Feature","properties":{"name":"Bruno","id_staz":"S00837","id_reg":3},"geometry":{"type":"Point","coordinates":[8.439639,44.797947]}},{"type":"Feature","properties":{"name":"Bruzolo","id_staz":"S00209","id_reg":3},"geometry":{"type":"Point","coordinates":[7.201497,45.131032]}},{"type":"Feature","properties":{"name":"Buccino S.","id_staz":"S09828","id_reg":18},"geometry":{"type":"Point","coordinates":[15.374199,40.600806]}},{"type":"Feature","properties":{"name":"Bucine","id_staz":"S06911","id_reg":13},"geometry":{"type":"Point","coordinates":[11.617609,43.480478]}},{"type":"Feature","properties":{"name":"Budoia Polcenigo","id_staz":"S03088","id_reg":10},"geometry":{"type":"Point","coordinates":[12.537637,46.031464]}},{"type":"Feature","properties":{"name":"Bugnara","id_staz":"S08538","id_reg":19},"geometry":{"type":"Point","coordinates":[13.862082,42.031166]}},{"type":"Feature","properties":{"name":"Buonconvento","id_staz":"S06874","id_reg":13},"geometry":{"type":"Point","coordinates":[11.483773,43.135503]}},{"type":"Feature","properties":{"name":"Buonfornello","id_staz":"S12016","id_reg":14},"geometry":{"type":"Point","coordinates":[13.816408,37.972052]}},{"type":"Feature","properties":{"name":"Buronzo","id_staz":"S00054","id_reg":3},"geometry":{"type":"Point","coordinates":[8.2667,45.47179]}},{"type":"Feature","properties":{"name":"Busalla","id_staz":"S04215","id_reg":2},"geometry":{"type":"Point","coordinates":[8.943611,44.57558]}},{"type":"Feature","properties":{"name":"Busca","id_staz":"S00704","id_reg":3},"geometry":{"type":"Point","coordinates":[7.481589,44.520585]}},{"type":"Feature","properties":{"name":"Busche Lentiai Mel","id_staz":"S02563","id_reg":12},"geometry":{"type":"Point","coordinates":[11.979251,46.040092]}},{"type":"Feature","properties":{"name":"Busseto","id_staz":"S01963","id_reg":8},"geometry":{"type":"Point","coordinates":[10.038909,44.974692]}},{"type":"Feature","properties":{"name":"Bussi","id_staz":"S07704","id_reg":19},"geometry":{"type":"Point","coordinates":[13.849075,42.194154]}},{"type":"Feature","properties":{"name":"Bussoleno","id_staz":"S00208","id_reg":3},"geometry":{"type":"Point","coordinates":[7.144819,45.139631]}},{"type":"Feature","properties":{"name":"Busto Arsizio","id_staz":"S01031","id_reg":1},"geometry":{"type":"Point","coordinates":[8.865031,45.616164]}},{"type":"Feature","properties":{"name":"Buttafava","id_staz":"S01482","id_reg":1},"geometry":{"type":"Point","coordinates":[9.301185,45.62141]}},{"type":"Feature","properties":{"name":"Buttapietra","id_staz":"S05301","id_reg":12},"geometry":{"type":"Point","coordinates":[10.988059,45.338787]}},{"type":"Feature","properties":{"name":"Buttrio","id_staz":"S03029","id_reg":10},"geometry":{"type":"Point","coordinates":[13.329039,46.012664]}},{"type":"Feature","properties":{"name":"Cadeo","id_staz":"S05006","id_reg":8},"geometry":{"type":"Point","coordinates":[9.853181,44.967283]}},{"type":"Feature","properties":{"name":"Cagliari","id_staz":"S12891","id_reg":20},"geometry":{"type":"Point","coordinates":[9.107984,39.216078]}},{"type":"Feature","properties":{"name":"Cagliari Elmas","id_staz":"S12890","id_reg":20},"geometry":{"type":"Point","coordinates":[9.045497,39.264193]}},{"type":"Feature","properties":{"name":"Cairo Montenotte","id_staz":"S00879","id_reg":2},"geometry":{"type":"Point","coordinates":[8.278786,44.394747]}},{"type":"Feature","properties":{"name":"Cala Sabina","id_staz":"S12851","id_reg":20},"geometry":{"type":"Point","coordinates":[9.5881,41.011012]}},{"type":"Feature","properties":{"name":"Calalzo Pieve Cadore Cortina","id_staz":"S02550","id_reg":12},"geometry":{"type":"Point","coordinates":[12.388668,46.443829]}},{"type":"Feature","properties":{"name":"Calamandrana","id_staz":"S00833","id_reg":3},"geometry":{"type":"Point","coordinates":[8.331572,44.738986]}},{"type":"Feature","properties":{"name":"Calatabiano","id_staz":"S12321","id_reg":14},"geometry":{"type":"Point","coordinates":[15.226568,37.814684]}},{"type":"Feature","properties":{"name":"Calatafimi","id_staz":"S12151","id_reg":14},"geometry":{"type":"Point","coordinates":[12.856156,37.938858]}},{"type":"Feature","properties":{"name":"Calceranica","id_staz":"S02307","id_reg":9},"geometry":{"type":"Point","coordinates":[11.240713,46.007384]}},{"type":"Feature","properties":{"name":"Calciano","id_staz":"S11455","id_reg":15},"geometry":{"type":"Point","coordinates":[16.202526,40.595117]}},{"type":"Feature","properties":{"name":"Calcio","id_staz":"S01712","id_reg":1},"geometry":{"type":"Point","coordinates":[9.841342,45.532937]}},{"type":"Feature","properties":{"name":"Calde`","id_staz":"S01117","id_reg":1},"geometry":{"type":"Point","coordinates":[8.663157,45.945812]}},{"type":"Feature","properties":{"name":"Caldiero","id_staz":"S02437","id_reg":12},"geometry":{"type":"Point","coordinates":[11.169753,45.41407]}},{"type":"Feature","properties":{"name":"Caldonazzo","id_staz":"S02308","id_reg":9},"geometry":{"type":"Point","coordinates":[11.264815,45.997575]}},{"type":"Feature","properties":{"name":"Calenzano","id_staz":"S06417","id_reg":13},"geometry":{"type":"Point","coordinates":[11.14537,43.856429]}},{"type":"Feature","properties":{"name":"Calitri Pescopagano","id_staz":"S09620","id_reg":18},"geometry":{"type":"Point","coordinates":[15.427962,40.884932]}},{"type":"Feature","properties":{"name":"Calolziocorte Olginate","id_staz":"S01524","id_reg":1},"geometry":{"type":"Point","coordinates":[9.42698,45.801619]}},{"type":"Feature","properties":{"name":"Calopezzati","id_staz":"S11815","id_reg":17},"geometry":{"type":"Point","coordinates":[16.819361,39.579022]}},{"type":"Feature","properties":{"name":"Caltagirone","id_staz":"S12270","id_reg":14},"geometry":{"type":"Point","coordinates":[14.521165,37.225276]}},{"type":"Feature","properties":{"name":"Caltanissetta Centrale","id_staz":"S12381","id_reg":14},"geometry":{"type":"Point","coordinates":[14.057396,37.48829]}},{"type":"Feature","properties":{"name":"Caltanissetta Xirbi","id_staz":"S12380","id_reg":14},"geometry":{"type":"Point","coordinates":[14.056902,37.536296]}},{"type":"Feature","properties":{"name":"Caltignaga","id_staz":"S00020","id_reg":3},"geometry":{"type":"Point","coordinates":[8.591602,45.519167]}},{"type":"Feature","properties":{"name":"Calusco","id_staz":"S01503","id_reg":1},"geometry":{"type":"Point","coordinates":[9.470646,45.684113]}},{"type":"Feature","properties":{"name":"Caluso","id_staz":"S00158","id_reg":3},"geometry":{"type":"Point","coordinates":[7.902568,45.303194]}},{"type":"Feature","properties":{"name":"Calvisano","id_staz":"S01843","id_reg":1},"geometry":{"type":"Point","coordinates":[10.349411,45.346572]}},{"type":"Feature","properties":{"name":"Camaiore Lido Capezzano","id_staz":"S06043","id_reg":13},"geometry":{"type":"Point","coordinates":[10.24765,43.912176]}},{"type":"Feature","properties":{"name":"Cambiano","id_staz":"S06804","id_reg":13},"geometry":{"type":"Point","coordinates":[10.958997,43.631183]}},{"type":"Feature","properties":{"name":"Cambiano Santena","id_staz":"S00456","id_reg":3},"geometry":{"type":"Point","coordinates":[7.773225,44.966491]}},{"type":"Feature","properties":{"name":"Cammarata S.Giovanni Gemini","id_staz":"S12207","id_reg":14},"geometry":{"type":"Point","coordinates":[13.673791,37.653759]}},{"type":"Feature","properties":{"name":"Camnago-Lentate","id_staz":"S01316","id_reg":1},"geometry":{"type":"Point","coordinates":[9.133451,45.668425]}},{"type":"Feature","properties":{"name":"Camogli San Fruttuoso","id_staz":"S04716","id_reg":2},"geometry":{"type":"Point","coordinates":[9.156743,44.348166]}},{"type":"Feature","properties":{"name":"Campagna Serre Persano","id_staz":"S09825","id_reg":18},"geometry":{"type":"Point","coordinates":[15.113986,40.595667]}},{"type":"Feature","properties":{"name":"Campello","id_staz":"S07219","id_reg":6},"geometry":{"type":"Point","coordinates":[12.761253,42.822814]}},{"type":"Feature","properties":{"name":"Campiglia Marittima","id_staz":"S06031","id_reg":13},"geometry":{"type":"Point","coordinates":[10.586558,43.017118]}},{"type":"Feature","properties":{"name":"Campo Di Carne","id_staz":"S08706","id_reg":5},"geometry":{"type":"Point","coordinates":[12.635125,41.552116]}},{"type":"Feature","properties":{"name":"Campo Di Giove","id_staz":"S08903","id_reg":19},"geometry":{"type":"Point","coordinates":[14.041492,42.007967]}},{"type":"Feature","properties":{"name":"Campo Di Giove-Monte Maiella","id_staz":"S08919","id_reg":19},"geometry":{"type":"Point","coordinates":[14.069088,41.993262]}},{"type":"Feature","properties":{"name":"Campo Di Nusco","id_staz":"S09626","id_reg":18},"geometry":{"type":"Point","coordinates":[15.129255,40.879143]}},{"type":"Feature","properties":{"name":"Campo Di Trens ","id_staz":"S02007","id_reg":9},"geometry":{"type":"Point","coordinates":[11.488231,46.869076]}},{"type":"Feature","properties":{"name":"Campobasso","id_staz":"S09459","id_reg":7},"geometry":{"type":"Point","coordinates":[14.66393,41.558137]}},{"type":"Feature","properties":{"name":"Campobello Di Mazara","id_staz":"S12112","id_reg":14},"geometry":{"type":"Point","coordinates":[12.733165,37.636256]}},{"type":"Feature","properties":{"name":"Campobello Ravanusa","id_staz":"S12385","id_reg":14},"geometry":{"type":"Point","coordinates":[13.946251,37.265731]}},{"type":"Feature","properties":{"name":"Campodarsego","id_staz":"S02527","id_reg":12},"geometry":{"type":"Point","coordinates":[11.900894,45.505721]}},{"type":"Feature","properties":{"name":"Campofelice","id_staz":"S12017","id_reg":14},"geometry":{"type":"Point","coordinates":[13.876549,37.992615]}},{"type":"Feature","properties":{"name":"Campofranco","id_staz":"S12211","id_reg":14},"geometry":{"type":"Point","coordinates":[13.686777,37.510105]}},{"type":"Feature","properties":{"name":"Campolattaro","id_staz":"S09505","id_reg":18},"geometry":{"type":"Point","coordinates":[14.726853,41.285869]}},{"type":"Feature","properties":{"name":"Campoleone","id_staz":"S08602","id_reg":5},"geometry":{"type":"Point","coordinates":[12.648341,41.642396]}},{"type":"Feature","properties":{"name":"Campolieto Monacilioni","id_staz":"S09462","id_reg":7},"geometry":{"type":"Point","coordinates":[14.76544,41.642573]}},{"type":"Feature","properties":{"name":"Campoligure Masone","id_staz":"S04105","id_reg":2},"geometry":{"type":"Point","coordinates":[8.700878,44.530909]}},{"type":"Feature","properties":{"name":"Campomaggiore","id_staz":"S11454","id_reg":15},"geometry":{"type":"Point","coordinates":[16.086766,40.550772]}},{"type":"Feature","properties":{"name":"Campomarino","id_staz":"S11020","id_reg":7},"geometry":{"type":"Point","coordinates":[15.042416,41.957398]}},{"type":"Feature","properties":{"name":"Campomela","id_staz":"S12815","id_reg":20},"geometry":{"type":"Point","coordinates":[8.638875,40.68139]}},{"type":"Feature","properties":{"name":"Campomigliaio","id_staz":"S06659","id_reg":13},"geometry":{"type":"Point","coordinates":[11.303593,43.937241]}},{"type":"Feature","properties":{"name":"Campora S.Giov. Serra Aiello","id_staz":"S11745","id_reg":17},"geometry":{"type":"Point","coordinates":[16.09102,39.068402]}},{"type":"Feature","properties":{"name":"Camporgiano","id_staz":"S06324","id_reg":13},"geometry":{"type":"Point","coordinates":[10.334849,44.161448]}},{"type":"Feature","properties":{"name":"Camposampiero","id_staz":"S02525","id_reg":12},"geometry":{"type":"Point","coordinates":[11.928293,45.568922]}},{"type":"Feature","properties":{"name":"Camposanto","id_staz":"S05314","id_reg":8},"geometry":{"type":"Point","coordinates":[11.143587,44.787527]}},{"type":"Feature","properties":{"name":"Camucia Cortona","id_staz":"S06921","id_reg":13},"geometry":{"type":"Point","coordinates":[11.971245,43.261104]}},{"type":"Feature","properties":{"name":"Cancelliera","id_staz":"S08735","id_reg":5},"geometry":{"type":"Point","coordinates":[12.621758,41.710587]}},{"type":"Feature","properties":{"name":"Cancello","id_staz":"S09213","id_reg":18},"geometry":{"type":"Point","coordinates":[14.418877,40.993063]}},{"type":"Feature","properties":{"name":"Cancello Arnone","id_staz":"S09002","id_reg":18},"geometry":{"type":"Point","coordinates":[14.02901,41.063369]}},{"type":"Feature","properties":{"name":"Candela","id_staz":"S11204","id_reg":16},"geometry":{"type":"Point","coordinates":[15.533163,41.151439]}},{"type":"Feature","properties":{"name":"Candelo","id_staz":"S00071","id_reg":3},"geometry":{"type":"Point","coordinates":[8.100103,45.547433]}},{"type":"Feature","properties":{"name":"Candia Canavese","id_staz":"S00157","id_reg":3},"geometry":{"type":"Point","coordinates":[7.891819,45.329824]}},{"type":"Feature","properties":{"name":"Candia Lomellina","id_staz":"S00333","id_reg":1},"geometry":{"type":"Point","coordinates":[8.593156,45.179911]}},{"type":"Feature","properties":{"name":"Candida","id_staz":"S11105","id_reg":16},"geometry":{"type":"Point","coordinates":[15.996588,41.346664]}},{"type":"Feature","properties":{"name":"Candiolo","id_staz":"S00512","id_reg":3},"geometry":{"type":"Point","coordinates":[7.598973,44.961155]}},{"type":"Feature","properties":{"name":"Candoglia Ornavasso","id_staz":"S01011","id_reg":3},"geometry":{"type":"Point","coordinates":[8.419715,45.977489]}},{"type":"Feature","properties":{"name":"Canegrate","id_staz":"S01034","id_reg":1},"geometry":{"type":"Point","coordinates":[8.926593,45.569235]}},{"type":"Feature","properties":{"name":"Canelli","id_staz":"S00832","id_reg":3},"geometry":{"type":"Point","coordinates":[8.294544,44.716716]}},{"type":"Feature","properties":{"name":"Canetra","id_staz":"S07429","id_reg":5},"geometry":{"type":"Point","coordinates":[13.029159,42.391578]}},{"type":"Feature","properties":{"name":"Canicatti`","id_staz":"S12375","id_reg":14},"geometry":{"type":"Point","coordinates":[13.855395,37.359879]}},{"type":"Feature","properties":{"name":"Caniga","id_staz":"S12812","id_reg":20},"geometry":{"type":"Point","coordinates":[8.526395,40.716116]}},{"type":"Feature","properties":{"name":"Cannara","id_staz":"S07009","id_reg":6},"geometry":{"type":"Point","coordinates":[12.628709,43.019591]}},{"type":"Feature","properties":{"name":"Canne Della Battaglia","id_staz":"S11406","id_reg":16},"geometry":{"type":"Point","coordinates":[16.146169,41.294583]}},{"type":"Feature","properties":{"name":"Canneto Sull`Oglio","id_staz":"S01848","id_reg":1},"geometry":{"type":"Point","coordinates":[10.37147,45.150211]}},{"type":"Feature","properties":{"name":"Canosa Di Puglia","id_staz":"S11402","id_reg":16},"geometry":{"type":"Point","coordinates":[16.053906,41.218556]}},{"type":"Feature","properties":{"name":"Cantalupo Del Sannio","id_staz":"S09451","id_reg":7},"geometry":{"type":"Point","coordinates":[14.6671,41.5174]}},{"type":"Feature","properties":{"name":"Cantu`","id_staz":"S01451","id_reg":1},"geometry":{"type":"Point","coordinates":[9.130321,45.752316]}},{"type":"Feature","properties":{"name":"Cantu`- Cermenate","id_staz":"S01313","id_reg":1},"geometry":{"type":"Point","coordinates":[9.099284,45.716236]}},{"type":"Feature","properties":{"name":"Caorso","id_staz":"S01970","id_reg":8},"geometry":{"type":"Point","coordinates":[9.868157,45.042048]}},{"type":"Feature","properties":{"name":"Capaccio Roccadaspide","id_staz":"S11702","id_reg":18},"geometry":{"type":"Point","coordinates":[15.013551,40.454518]}},{"type":"Feature","properties":{"name":"Capaci","id_staz":"S12128","id_reg":14},"geometry":{"type":"Point","coordinates":[13.232398,38.171794]}},{"type":"Feature","properties":{"name":"Capalbio","id_staz":"S08006","id_reg":13},"geometry":{"type":"Point","coordinates":[11.370982,42.407974]}},{"type":"Feature","properties":{"name":"Capannelle","id_staz":"S08672","id_reg":5},"geometry":{"type":"Point","coordinates":[12.568884,41.830713]}},{"type":"Feature","properties":{"name":"Capistrello","id_staz":"S08850","id_reg":19},"geometry":{"type":"Point","coordinates":[13.399276,41.97051]}},{"type":"Feature","properties":{"name":"Capo Bonifati","id_staz":"S11734","id_reg":17},"geometry":{"type":"Point","coordinates":[15.874052,39.558342]}},{"type":"Feature","properties":{"name":"Capo D`Orlando-Naso","id_staz":"S12030","id_reg":14},"geometry":{"type":"Point","coordinates":[14.744844,38.157941]}},{"type":"Feature","properties":{"name":"Capo Spartivento","id_staz":"S11858","id_reg":17},"geometry":{"type":"Point","coordinates":[16.058342,37.924778]}},{"type":"Feature","properties":{"name":"Capodacqua Pieve Fanonica","id_staz":"S07215","id_reg":6},"geometry":{"type":"Point","coordinates":[12.7541,43.026769]}},{"type":"Feature","properties":{"name":"Cappelle-Magliano","id_staz":"S08525","id_reg":19},"geometry":{"type":"Point","coordinates":[13.372468,42.059369]}},{"type":"Feature","properties":{"name":"Capralba","id_staz":"S01603","id_reg":1},"geometry":{"type":"Point","coordinates":[9.640015,45.443871]}},{"type":"Feature","properties":{"name":"Capranica","id_staz":"S08311","id_reg":5},"geometry":{"type":"Point","coordinates":[12.157194,42.245195]}},{"type":"Feature","properties":{"name":"Caprarola","id_staz":"S08110","id_reg":5},"geometry":{"type":"Point","coordinates":[12.258238,42.303815]}},{"type":"Feature","properties":{"name":"Capriati Al Volturno","id_staz":"S09061","id_reg":7},"geometry":{"type":"Point","coordinates":[14.070664,41.44279]}},{"type":"Feature","properties":{"name":"Capriolo","id_staz":"S01622","id_reg":1},"geometry":{"type":"Point","coordinates":[9.933806,45.64556]}},{"type":"Feature","properties":{"name":"Capriva","id_staz":"S03301","id_reg":10},"geometry":{"type":"Point","coordinates":[13.517494,45.938764]}},{"type":"Feature","properties":{"name":"Capua","id_staz":"S09208","id_reg":18},"geometry":{"type":"Point","coordinates":[14.210347,41.101306]}},{"type":"Feature","properties":{"name":"Carate-Calo`","id_staz":"S01486","id_reg":1},"geometry":{"type":"Point","coordinates":[9.252304,45.676451]}},{"type":"Feature","properties":{"name":"Caravaggio","id_staz":"S01602","id_reg":1},"geometry":{"type":"Point","coordinates":[9.637723,45.491158]}},{"type":"Feature","properties":{"name":"Carbona","id_staz":"S05120","id_reg":8},"geometry":{"type":"Point","coordinates":[11.09618,44.246876]}},{"type":"Feature","properties":{"name":"Carbonara Scrivia","id_staz":"S04300","id_reg":3},"geometry":{"type":"Point","coordinates":[8.853772,44.860173]}},{"type":"Feature","properties":{"name":"Carbonia Serbariu","id_staz":"S12818","id_reg":20},"geometry":{"type":"Point","coordinates":[8.509186,39.169508]}},{"type":"Feature","properties":{"name":"Cardillo Zen","id_staz":"S12140","id_reg":14},"geometry":{"type":"Point","coordinates":[13.296897,38.17495]}},{"type":"Feature","properties":{"name":"Carentino","id_staz":"S00839","id_reg":3},"geometry":{"type":"Point","coordinates":[8.470474,44.831303]}},{"type":"Feature","properties":{"name":"Cariati","id_staz":"S11818","id_reg":17},"geometry":{"type":"Point","coordinates":[16.952018,39.496884]}},{"type":"Feature","properties":{"name":"Carimate","id_staz":"S01315","id_reg":1},"geometry":{"type":"Point","coordinates":[9.107188,45.697094]}},{"type":"Feature","properties":{"name":"Carini","id_staz":"S12127","id_reg":14},"geometry":{"type":"Point","coordinates":[13.186624,38.147696]}},{"type":"Feature","properties":{"name":"Carini Torre Ciachea","id_staz":"S12799","id_reg":14},"geometry":{"type":"Point","coordinates":[13.219641,38.16149]}},{"type":"Feature","properties":{"name":"Carisio","id_staz":"S00055","id_reg":3},"geometry":{"type":"Point","coordinates":[8.21249,45.403164]}},{"type":"Feature","properties":{"name":"Carmagnola","id_staz":"S00601","id_reg":3},"geometry":{"type":"Point","coordinates":[7.72797,44.846944]}},{"type":"Feature","properties":{"name":"Carmignano Di Brenta","id_staz":"S02532","id_reg":12},"geometry":{"type":"Point","coordinates":[11.714891,45.621354]}},{"type":"Feature","properties":{"name":"Carnate Usmate","id_staz":"S01511","id_reg":1},"geometry":{"type":"Point","coordinates":[9.375089,45.653072]}},{"type":"Feature","properties":{"name":"Carnia","id_staz":"S03016","id_reg":10},"geometry":{"type":"Point","coordinates":[13.132847,46.373634]}},{"type":"Feature","properties":{"name":"Caronia","id_staz":"S12025","id_reg":14},"geometry":{"type":"Point","coordinates":[14.443761,38.034475]}},{"type":"Feature","properties":{"name":"Carovigno","id_staz":"S11133","id_reg":16},"geometry":{"type":"Point","coordinates":[17.683791,40.737337]}},{"type":"Feature","properties":{"name":"Carovilli-Roccasicura","id_staz":"S08914","id_reg":7},"geometry":{"type":"Point","coordinates":[14.299732,41.712485]}},{"type":"Feature","properties":{"name":"Carpane`Valstagna","id_staz":"S02502","id_reg":12},"geometry":{"type":"Point","coordinates":[11.661183,45.860128]}},{"type":"Feature","properties":{"name":"Carpi","id_staz":"S02349","id_reg":8},"geometry":{"type":"Point","coordinates":[10.891952,44.782919]}},{"type":"Feature","properties":{"name":"Carpignano Sesia","id_staz":"S00971","id_reg":3},"geometry":{"type":"Point","coordinates":[8.422898,45.528934]}},{"type":"Feature","properties":{"name":"Carpinone","id_staz":"S09050","id_reg":7},"geometry":{"type":"Point","coordinates":[14.326783,41.588038]}},{"type":"Feature","properties":{"name":"Carrara Avenza","id_staz":"S06005","id_reg":13},"geometry":{"type":"Point","coordinates":[10.062927,44.051239]}},{"type":"Feature","properties":{"name":"Carrito-Ortona","id_staz":"S08533","id_reg":19},"geometry":{"type":"Point","coordinates":[13.720179,42.026506]}},{"type":"Feature","properties":{"name":"Carruba","id_staz":"S12326","id_reg":14},"geometry":{"type":"Point","coordinates":[15.196143,37.694344]}},{"type":"Feature","properties":{"name":"Carru` Clavesana","id_staz":"S00738","id_reg":3},"geometry":{"type":"Point","coordinates":[7.891414,44.479548]}},{"type":"Feature","properties":{"name":"Carsoli","id_staz":"S08519","id_reg":19},"geometry":{"type":"Point","coordinates":[13.080388,42.09578]}},{"type":"Feature","properties":{"name":"Casabianca","id_staz":"S08730","id_reg":5},"geometry":{"type":"Point","coordinates":[12.60431,41.788327]}},{"type":"Feature","properties":{"name":"Casacalenda Guardialfiera","id_staz":"S09465","id_reg":7},"geometry":{"type":"Point","coordinates":[14.849602,41.738109]}},{"type":"Feature","properties":{"name":"Casal Sabini","id_staz":"S11309","id_reg":16},"geometry":{"type":"Point","coordinates":[16.647908,40.799021]}},{"type":"Feature","properties":{"name":"Casalbordino Pollutri","id_staz":"S07821","id_reg":19},"geometry":{"type":"Point","coordinates":[14.633045,42.193653]}},{"type":"Feature","properties":{"name":"Casalbuono","id_staz":"S09910","id_reg":18},"geometry":{"type":"Point","coordinates":[15.686095,40.214093]}},{"type":"Feature","properties":{"name":"Casalbuttano","id_staz":"S01609","id_reg":1},"geometry":{"type":"Point","coordinates":[9.962361,45.255398]}},{"type":"Feature","properties":{"name":"Casale Monferrato","id_staz":"S00314","id_reg":3},"geometry":{"type":"Point","coordinates":[8.460292,45.133928]}},{"type":"Feature","properties":{"name":"Casale Popolo","id_staz":"S00179","id_reg":3},"geometry":{"type":"Point","coordinates":[8.44055,45.160434]}},{"type":"Feature","properties":{"name":"Casalecchio Di Reno","id_staz":"S05101","id_reg":8},"geometry":{"type":"Point","coordinates":[11.276097,44.474298]}},{"type":"Feature","properties":{"name":"Casalecchio Garibaldi","id_staz":"S05111","id_reg":8},"geometry":{"type":"Point","coordinates":[11.272474,44.482995]}},{"type":"Feature","properties":{"name":"Casaleggio","id_staz":"S00972","id_reg":3},"geometry":{"type":"Point","coordinates":[8.490369,45.491298]}},{"type":"Feature","properties":{"name":"Casaletto Vaprio","id_staz":"S01604","id_reg":1},"geometry":{"type":"Point","coordinates":[9.631746,45.408641]}},{"type":"Feature","properties":{"name":"Casalmaggiore","id_staz":"S01850","id_reg":1},"geometry":{"type":"Point","coordinates":[10.425023,44.993139]}},{"type":"Feature","properties":{"name":"Casalnuovo","id_staz":"S09216","id_reg":18},"geometry":{"type":"Point","coordinates":[14.35296,40.915559]}},{"type":"Feature","properties":{"name":"Casalpusterlengo","id_staz":"S01827","id_reg":1},"geometry":{"type":"Point","coordinates":[9.653627,45.182473]}},{"type":"Feature","properties":{"name":"Casarsa","id_staz":"S02830","id_reg":10},"geometry":{"type":"Point","coordinates":[12.8406,45.953002]}},{"type":"Feature","properties":{"name":"Cascina","id_staz":"S06505","id_reg":13},"geometry":{"type":"Point","coordinates":[10.545225,43.674542]}},{"type":"Feature","properties":{"name":"Caserta","id_staz":"S09211","id_reg":18},"geometry":{"type":"Point","coordinates":[14.328457,41.068655]}},{"type":"Feature","properties":{"name":"Casino Di Terra","id_staz":"S06751","id_reg":13},"geometry":{"type":"Point","coordinates":[10.662975,43.328581]}},{"type":"Feature","properties":{"name":"Casletto-Rogeno","id_staz":"S01457","id_reg":1},"geometry":{"type":"Point","coordinates":[9.275375,45.786028]}},{"type":"Feature","properties":{"name":"Casorate Sempione","id_staz":"S01029","id_reg":1},"geometry":{"type":"Point","coordinates":[8.743954,45.675075]}},{"type":"Feature","properties":{"name":"Casoria","id_staz":"S09009","id_reg":18},"geometry":{"type":"Point","coordinates":[14.29874,40.907762]}},{"type":"Feature","properties":{"name":"Cassago-Nibionno-Bulciago","id_staz":"S01490","id_reg":1},"geometry":{"type":"Point","coordinates":[9.279834,45.746243]}},{"type":"Feature","properties":{"name":"Cassano All`Ionio","id_staz":"S11900","id_reg":17},"geometry":{"type":"Point","coordinates":[16.35218,39.726326]}},{"type":"Feature","properties":{"name":"Cassano D`Adda","id_staz":"S01707","id_reg":1},"geometry":{"type":"Point","coordinates":[9.512746,45.514372]}},{"type":"Feature","properties":{"name":"Cassano Irpino","id_staz":"S09611","id_reg":18},"geometry":{"type":"Point","coordinates":[15.031213,40.869227]}},{"type":"Feature","properties":{"name":"Cassine","id_staz":"S00864","id_reg":3},"geometry":{"type":"Point","coordinates":[8.533613,44.751513]}},{"type":"Feature","properties":{"name":"Cassino","id_staz":"S08671","id_reg":5},"geometry":{"type":"Point","coordinates":[13.832125,41.484306]}},{"type":"Feature","properties":{"name":"Cassola","id_staz":"S02506","id_reg":12},"geometry":{"type":"Point","coordinates":[11.795866,45.732291]}},{"type":"Feature","properties":{"name":"Castagnaro","id_staz":"S02368","id_reg":12},"geometry":{"type":"Point","coordinates":[11.403936,45.119349]}},{"type":"Feature","properties":{"name":"Castagneto Carducci","id_staz":"S06029","id_reg":13},"geometry":{"type":"Point","coordinates":[10.56399,43.16816]}},{"type":"Feature","properties":{"name":"Castagno","id_staz":"S05122","id_reg":13},"geometry":{"type":"Point","coordinates":[10.91538,44.012359]}},{"type":"Feature","properties":{"name":"Castagnole Delle Lanze","id_staz":"S00828","id_reg":3},"geometry":{"type":"Point","coordinates":[8.152836,44.749341]}},{"type":"Feature","properties":{"name":"Casteggio","id_staz":"S01942","id_reg":1},"geometry":{"type":"Point","coordinates":[9.124595,45.017365]}},{"type":"Feature","properties":{"name":"Castel Bagnolo Di Orte","id_staz":"S08114","id_reg":5},"geometry":{"type":"Point","coordinates":[12.400781,42.400183]}},{"type":"Feature","properties":{"name":"Castel Di Sangro","id_staz":"S08910","id_reg":19},"geometry":{"type":"Point","coordinates":[14.112049,41.777829]}},{"type":"Feature","properties":{"name":"Castel D`Ario","id_staz":"S02382","id_reg":1},"geometry":{"type":"Point","coordinates":[10.97531,45.183399]}},{"type":"Feature","properties":{"name":"Castel Gandolfo","id_staz":"S08703","id_reg":5},"geometry":{"type":"Point","coordinates":[12.652266,41.746946]}},{"type":"Feature","properties":{"name":"Castel Lagopesole","id_staz":"S11212","id_reg":15},"geometry":{"type":"Point","coordinates":[15.758093,40.787682]}},{"type":"Feature","properties":{"name":"Castel Madama","id_staz":"S08510","id_reg":5},"geometry":{"type":"Point","coordinates":[12.864938,41.988389]}},{"type":"Feature","properties":{"name":"Castel S.Angelo","id_staz":"S07407","id_reg":5},"geometry":{"type":"Point","coordinates":[13.017612,42.379666]}},{"type":"Feature","properties":{"name":"Castel S.Giorgio Roccapiemonte","id_staz":"S09704","id_reg":18},"geometry":{"type":"Point","coordinates":[14.692352,40.758713]}},{"type":"Feature","properties":{"name":"Castel S.Giovanni","id_staz":"S01948","id_reg":8},"geometry":{"type":"Point","coordinates":[9.436856,45.063272]}},{"type":"Feature","properties":{"name":"Castel S.Pietro Terme","id_staz":"S05053","id_reg":8},"geometry":{"type":"Point","coordinates":[11.597681,44.407376]}},{"type":"Feature","properties":{"name":"Castelbello","id_staz":"S02208","id_reg":9},"geometry":{"type":"Point","coordinates":[10.897884,46.626994]}},{"type":"Feature","properties":{"name":"Castelbolognese","id_staz":"S05056","id_reg":8},"geometry":{"type":"Point","coordinates":[11.804174,44.325391]}},{"type":"Feature","properties":{"name":"Castelbuono","id_staz":"S12020","id_reg":14},"geometry":{"type":"Point","coordinates":[14.108578,38.014606]}},{"type":"Feature","properties":{"name":"Casteldaccia","id_staz":"S12010","id_reg":14},"geometry":{"type":"Point","coordinates":[13.536867,38.060474]}},{"type":"Feature","properties":{"name":"Casteldarne ","id_staz":"S02105","id_reg":9},"geometry":{"type":"Point","coordinates":[11.844223,46.797708]}},{"type":"Feature","properties":{"name":"Casteldebole","id_staz":"S05102","id_reg":8},"geometry":{"type":"Point","coordinates":[11.27456,44.503974]}},{"type":"Feature","properties":{"name":"Castelferretti","id_staz":"S07200","id_reg":11},"geometry":{"type":"Point","coordinates":[13.357519,43.607303]}},{"type":"Feature","properties":{"name":"Castelfiorentino","id_staz":"S06802","id_reg":13},"geometry":{"type":"Point","coordinates":[10.968048,43.60542]}},{"type":"Feature","properties":{"name":"Castelfranci","id_staz":"S09609","id_reg":18},"geometry":{"type":"Point","coordinates":[15.038655,40.935968]}},{"type":"Feature","properties":{"name":"Castelfranco D'Emilia","id_staz":"S05037","id_reg":8},"geometry":{"type":"Point","coordinates":[11.056408,44.597381]}},{"type":"Feature","properties":{"name":"Castelfranco Veneto","id_staz":"S02537","id_reg":12},"geometry":{"type":"Point","coordinates":[11.934315,45.666439]}},{"type":"Feature","properties":{"name":"Castelguelfo","id_staz":"S05012","id_reg":8},"geometry":{"type":"Point","coordinates":[10.176706,44.836434]}},{"type":"Feature","properties":{"name":"Castellalto Canzano","id_staz":"S07901","id_reg":19},"geometry":{"type":"Point","coordinates":[13.793043,42.69564]}},{"type":"Feature","properties":{"name":"Castellammare Del Golfo","id_staz":"S12120","id_reg":14},"geometry":{"type":"Point","coordinates":[12.912209,38.024309]}},{"type":"Feature","properties":{"name":"Castellammare Di Stabia","id_staz":"S09756","id_reg":18},"geometry":{"type":"Point","coordinates":[14.483737,40.701398]}},{"type":"Feature","properties":{"name":"Castellaneta Marina","id_staz":"S11463","id_reg":16},"geometry":{"type":"Point","coordinates":[16.965434,40.481111]}},{"type":"Feature","properties":{"name":"Castellazzo Casalcermelli","id_staz":"S04000","id_reg":3},"geometry":{"type":"Point","coordinates":[8.589645,44.843839]}},{"type":"Feature","properties":{"name":"Castelleone","id_staz":"S01606","id_reg":1},"geometry":{"type":"Point","coordinates":[9.76779,45.301826]}},{"type":"Feature","properties":{"name":"Castelletto Busca","id_staz":"S00720","id_reg":3},"geometry":{"type":"Point","coordinates":[7.463939,44.501319]}},{"type":"Feature","properties":{"name":"Castelletto Ticino","id_staz":"S01123","id_reg":3},"geometry":{"type":"Point","coordinates":[8.638259,45.710757]}},{"type":"Feature","properties":{"name":"Castellina Ch","id_staz":"S06808","id_reg":13},"geometry":{"type":"Point","coordinates":[11.212379,43.408744]}},{"type":"Feature","properties":{"name":"Castellina Marittima","id_staz":"S06024","id_reg":13},"geometry":{"type":"Point","coordinates":[10.495776,43.406122]}},{"type":"Feature","properties":{"name":"Castellino Tanaro","id_staz":"S00741","id_reg":3},"geometry":{"type":"Point","coordinates":[7.974321,44.41657]}},{"type":"Feature","properties":{"name":"Castello Di Godego","id_staz":"S02507","id_reg":12},"geometry":{"type":"Point","coordinates":[11.87759,45.688082]}},{"type":"Feature","properties":{"name":"Castello D`Annone","id_staz":"S00465","id_reg":3},"geometry":{"type":"Point","coordinates":[8.312724,44.878742]}},{"type":"Feature","properties":{"name":"Castellucchio","id_staz":"S01923","id_reg":1},"geometry":{"type":"Point","coordinates":[10.64749,45.144293]}},{"type":"Feature","properties":{"name":"Castell`Alfero","id_staz":"S00343","id_reg":3},"geometry":{"type":"Point","coordinates":[8.220882,44.986347]}},{"type":"Feature","properties":{"name":"Castelmaggiore","id_staz":"S05724","id_reg":8},"geometry":{"type":"Point","coordinates":[11.366901,44.576055]}},{"type":"Feature","properties":{"name":"Castelnuovo","id_staz":"S02093","id_reg":12},"geometry":{"type":"Point","coordinates":[10.758273,45.430843]}},{"type":"Feature","properties":{"name":"Castelnuovo Belbo","id_staz":"S00836","id_reg":3},"geometry":{"type":"Point","coordinates":[8.42516,44.798127]}},{"type":"Feature","properties":{"name":"Castelnuovo Berardenga","id_staz":"S06812","id_reg":13},"geometry":{"type":"Point","coordinates":[11.484912,43.306882]}},{"type":"Feature","properties":{"name":"Castelnuovo Di Garfagnana","id_staz":"S06300","id_reg":13},"geometry":{"type":"Point","coordinates":[10.409054,44.116351]}},{"type":"Feature","properties":{"name":"Castelplanio Cupramontana","id_staz":"S07204","id_reg":11},"geometry":{"type":"Point","coordinates":[13.084733,43.481403]}},{"type":"Feature","properties":{"name":"Castelraimondo Camerino","id_staz":"S07302","id_reg":11},"geometry":{"type":"Point","coordinates":[13.057274,43.210511]}},{"type":"Feature","properties":{"name":"Castelrosso","id_staz":"S00233","id_reg":3},"geometry":{"type":"Point","coordinates":[7.932162,45.201802]}},{"type":"Feature","properties":{"name":"Castelspina Portanova","id_staz":"S04001","id_reg":3},"geometry":{"type":"Point","coordinates":[8.62203,44.796662]}},{"type":"Feature","properties":{"name":"Castelvecchio Pascoli","id_staz":"S06302","id_reg":13},"geometry":{"type":"Point","coordinates":[10.455061,44.09007]}},{"type":"Feature","properties":{"name":"Castelvetere","id_staz":"S09608","id_reg":18},"geometry":{"type":"Point","coordinates":[15.011348,40.952072]}},{"type":"Feature","properties":{"name":"Castelvetrano","id_staz":"S12113","id_reg":14},"geometry":{"type":"Point","coordinates":[12.799552,37.684977]}},{"type":"Feature","properties":{"name":"Castelvetro","id_staz":"S01960","id_reg":8},"geometry":{"type":"Point","coordinates":[9.982181,45.100095]}},{"type":"Feature","properties":{"name":"Castiglion Del Lago","id_staz":"S06923","id_reg":6},"geometry":{"type":"Point","coordinates":[12.032077,43.123195]}},{"type":"Feature","properties":{"name":"Castiglion Fiorentino","id_staz":"S06920","id_reg":13},"geometry":{"type":"Point","coordinates":[11.914362,43.34075]}},{"type":"Feature","properties":{"name":"Castiglioncello","id_staz":"S06729","id_reg":13},"geometry":{"type":"Point","coordinates":[10.414354,43.404619]}},{"type":"Feature","properties":{"name":"Castiglione Cosentino","id_staz":"S11909","id_reg":17},"geometry":{"type":"Point","coordinates":[16.244388,39.35542]}},{"type":"Feature","properties":{"name":"Castiglione Di Sicilia","id_staz":"S12362","id_reg":14},"geometry":{"type":"Point","coordinates":[15.097013,37.88674]}},{"type":"Feature","properties":{"name":"Castiglione In Teverina","id_staz":"S08205","id_reg":6},"geometry":{"type":"Point","coordinates":[12.234913,42.648544]}},{"type":"Feature","properties":{"name":"Castione Andevenno","id_staz":"S01429","id_reg":1},"geometry":{"type":"Point","coordinates":[9.806151,46.161659]}},{"type":"Feature","properties":{"name":"Castione Dei Marchesi","id_staz":"S01964","id_reg":8},"geometry":{"type":"Point","coordinates":[10.044449,44.915157]}},{"type":"Feature","properties":{"name":"Castro-Pofi","id_staz":"S08663","id_reg":5},"geometry":{"type":"Point","coordinates":[13.410741,41.533014]}},{"type":"Feature","properties":{"name":"Castronno","id_staz":"S01208","id_reg":1},"geometry":{"type":"Point","coordinates":[8.810302,45.74524]}},{"type":"Feature","properties":{"name":"Catania Acquicella","id_staz":"S12337","id_reg":14},"geometry":{"type":"Point","coordinates":[15.074699,37.492765]}},{"type":"Feature","properties":{"name":"Catania Centrale","id_staz":"S12332","id_reg":14},"geometry":{"type":"Point","coordinates":[15.099417,37.506211]}},{"type":"Feature","properties":{"name":"Catania Ognina","id_staz":"S12331","id_reg":14},"geometry":{"type":"Point","coordinates":[15.11261,37.534049]}},{"type":"Feature","properties":{"name":"Catanzaro","id_staz":"S11956","id_reg":17},"geometry":{"type":"Point","coordinates":[16.599081,38.896222]}},{"type":"Feature","properties":{"name":"Catanzaro Lido","id_staz":"S11833","id_reg":17},"geometry":{"type":"Point","coordinates":[16.612975,38.821788]}},{"type":"Feature","properties":{"name":"Catenanuova","id_staz":"S12244","id_reg":14},"geometry":{"type":"Point","coordinates":[14.688263,37.562026]}},{"type":"Feature","properties":{"name":"Cattolica S.Giovanni Gabicce","id_staz":"S07102","id_reg":8},"geometry":{"type":"Point","coordinates":[12.745087,43.959931]}},{"type":"Feature","properties":{"name":"Caulonia","id_staz":"S11846","id_reg":17},"geometry":{"type":"Point","coordinates":[16.467278,38.343785]}},{"type":"Feature","properties":{"name":"Cava Carbonara","id_staz":"S00279","id_reg":1},"geometry":{"type":"Point","coordinates":[9.071387,45.147055]}},{"type":"Feature","properties":{"name":"Cava Dei Tirreni","id_staz":"S09816","id_reg":18},"geometry":{"type":"Point","coordinates":[14.708461,40.703662]}},{"type":"Feature","properties":{"name":"Cava Manara","id_staz":"S01804","id_reg":1},"geometry":{"type":"Point","coordinates":[9.115332,45.144867]}},{"type":"Feature","properties":{"name":"Cava Tigozzi","id_staz":"S01914","id_reg":1},"geometry":{"type":"Point","coordinates":[9.955827,45.156823]}},{"type":"Feature","properties":{"name":"Cavagnolo Brusasco","id_staz":"S00423","id_reg":3},"geometry":{"type":"Point","coordinates":[8.047534,45.153655]}},{"type":"Feature","properties":{"name":"Cavalleggeri Aosta","id_staz":"S09113","id_reg":18},"geometry":{"type":"Point","coordinates":[14.185679,40.819292]}},{"type":"Feature","properties":{"name":"Cavallermaggiore","id_staz":"S00603","id_reg":3},"geometry":{"type":"Point","coordinates":[7.692108,44.708147]}},{"type":"Feature","properties":{"name":"Cavanella D`Adige","id_staz":"S05425","id_reg":12},"geometry":{"type":"Point","coordinates":[12.249312,45.111263]}},{"type":"Feature","properties":{"name":"Cavanella Po","id_staz":"S05422","id_reg":12},"geometry":{"type":"Point","coordinates":[12.134893,45.052208]}},{"type":"Feature","properties":{"name":"Cavaria Oggiona Jerago","id_staz":"S01210","id_reg":1},"geometry":{"type":"Point","coordinates":[8.8035,45.698145]}},{"type":"Feature","properties":{"name":"Cavazzale","id_staz":"S02147","id_reg":12},"geometry":{"type":"Point","coordinates":[11.569823,45.596079]}},{"type":"Feature","properties":{"name":"Cavi","id_staz":"S04724","id_reg":2},"geometry":{"type":"Point","coordinates":[9.37251,44.29354]}},{"type":"Feature","properties":{"name":"Ca` Di Boschetti","id_staz":"S06044","id_reg":2},"geometry":{"type":"Point","coordinates":[9.857449,44.117925]}},{"type":"Feature","properties":{"name":"Ceccano","id_staz":"S08664","id_reg":5},"geometry":{"type":"Point","coordinates":[13.336417,41.573583]}},{"type":"Feature","properties":{"name":"Cecchina","id_staz":"S08732","id_reg":5},"geometry":{"type":"Point","coordinates":[12.650992,41.692029]}},{"type":"Feature","properties":{"name":"Cecina","id_staz":"S06026","id_reg":13},"geometry":{"type":"Point","coordinates":[10.514225,43.31028]}},{"type":"Feature","properties":{"name":"Cefalu`","id_staz":"S12019","id_reg":14},"geometry":{"type":"Point","coordinates":[14.019526,38.03285]}},{"type":"Feature","properties":{"name":"Ceggia","id_staz":"S02665","id_reg":12},"geometry":{"type":"Point","coordinates":[12.633987,45.688394]}},{"type":"Feature","properties":{"name":"Celano-Ovindoli","id_staz":"S08528","id_reg":19},"geometry":{"type":"Point","coordinates":[13.543398,42.076999]}},{"type":"Feature","properties":{"name":"Celle","id_staz":"S04530","id_reg":2},"geometry":{"type":"Point","coordinates":[8.542626,44.34246]}},{"type":"Feature","properties":{"name":"Celle Bulgheria Roccagloriosa","id_staz":"S11716","id_reg":18},"geometry":{"type":"Point","coordinates":[15.39473,40.10287]}},{"type":"Feature","properties":{"name":"Cengio","id_staz":"S00745","id_reg":2},"geometry":{"type":"Point","coordinates":[8.191824,44.390798]}},{"type":"Feature","properties":{"name":"Centallo","id_staz":"S00608","id_reg":3},"geometry":{"type":"Point","coordinates":[7.591035,44.496223]}},{"type":"Feature","properties":{"name":"Centola","id_staz":"S11715","id_reg":18},"geometry":{"type":"Point","coordinates":[15.34674,40.090672]}},{"type":"Feature","properties":{"name":"Ceprano-Falvaterra","id_staz":"S08666","id_reg":5},"geometry":{"type":"Point","coordinates":[13.523481,41.523962]}},{"type":"Feature","properties":{"name":"Cercenasco","id_staz":"S00541","id_reg":3},"geometry":{"type":"Point","coordinates":[7.495302,44.864897]}},{"type":"Feature","properties":{"name":"Cerchio","id_staz":"S08530","id_reg":19},"geometry":{"type":"Point","coordinates":[13.597972,42.061082]}},{"type":"Feature","properties":{"name":"Cercina","id_staz":"S06956","id_reg":13},"geometry":{"type":"Point","coordinates":[11.265279,43.900121]}},{"type":"Feature","properties":{"name":"Cerda","id_staz":"S12200","id_reg":14},"geometry":{"type":"Point","coordinates":[13.78447,37.953964]}},{"type":"Feature","properties":{"name":"Cerea","id_staz":"S02364","id_reg":12},"geometry":{"type":"Point","coordinates":[11.213921,45.196556]}},{"type":"Feature","properties":{"name":"Ceregnano","id_staz":"S05417","id_reg":12},"geometry":{"type":"Point","coordinates":[11.870958,45.05062]}},{"type":"Feature","properties":{"name":"Ceriale","id_staz":"S04517","id_reg":2},"geometry":{"type":"Point","coordinates":[8.234216,44.098922]}},{"type":"Feature","properties":{"name":"Cerignola","id_staz":"S11103","id_reg":16},"geometry":{"type":"Point","coordinates":[15.897298,41.315664]}},{"type":"Feature","properties":{"name":"Cernusco-Merate","id_staz":"S01513","id_reg":1},"geometry":{"type":"Point","coordinates":[9.396794,45.695096]}},{"type":"Feature","properties":{"name":"Cerreto D`Esi","id_staz":"S07300","id_reg":11},"geometry":{"type":"Point","coordinates":[12.98319,43.32205]}},{"type":"Feature","properties":{"name":"Certaldo","id_staz":"S06803","id_reg":13},"geometry":{"type":"Point","coordinates":[11.037711,43.547124]}},{"type":"Feature","properties":{"name":"Certosa Di Pavia","id_staz":"S01803","id_reg":1},"geometry":{"type":"Point","coordinates":[9.154456,45.256927]}},{"type":"Feature","properties":{"name":"Cervaro","id_staz":"S11200","id_reg":16},"geometry":{"type":"Point","coordinates":[15.595704,41.397604]}},{"type":"Feature","properties":{"name":"Cervia-Milano Marittima","id_staz":"S05814","id_reg":8},"geometry":{"type":"Point","coordinates":[12.347096,44.258444]}},{"type":"Feature","properties":{"name":"Cervignano A.G.","id_staz":"S03207","id_reg":10},"geometry":{"type":"Point","coordinates":[13.342866,45.823948]}},{"type":"Feature","properties":{"name":"Cervignasco","id_staz":"S00546","id_reg":3},"geometry":{"type":"Point","coordinates":[7.518644,44.699669]}},{"type":"Feature","properties":{"name":"Cervo San Bartolomeo","id_staz":"S04512","id_reg":2},"geometry":{"type":"Point","coordinates":[8.109704,43.923901]}},{"type":"Feature","properties":{"name":"Cesano Di Roma","id_staz":"S08319","id_reg":5},"geometry":{"type":"Point","coordinates":[12.326669,42.061833]}},{"type":"Feature","properties":{"name":"Cese","id_staz":"S09473","id_reg":18},"geometry":{"type":"Point","coordinates":[14.787329,41.210883]}},{"type":"Feature","properties":{"name":"Cesena","id_staz":"S05066","id_reg":8},"geometry":{"type":"Point","coordinates":[12.24964,44.145449]}},{"type":"Feature","properties":{"name":"Cesenatico","id_staz":"S05815","id_reg":8},"geometry":{"type":"Point","coordinates":[12.391186,44.20065]}},{"type":"Feature","properties":{"name":"Cetraro","id_staz":"S11735","id_reg":17},"geometry":{"type":"Point","coordinates":[15.939263,39.512553]}},{"type":"Feature","properties":{"name":"Ceva","id_staz":"S00742","id_reg":3},"geometry":{"type":"Point","coordinates":[8.031958,44.389861]}},{"type":"Feature","properties":{"name":"Chambave","id_staz":"S00141","id_reg":4},"geometry":{"type":"Point","coordinates":[7.557301,45.744163]}},{"type":"Feature","properties":{"name":"Chatillon Saint Vincent","id_staz":"S00142","id_reg":4},"geometry":{"type":"Point","coordinates":[7.619309,45.7434]}},{"type":"Feature","properties":{"name":"Cherasco","id_staz":"S00733","id_reg":3},"geometry":{"type":"Point","coordinates":[7.867211,44.65261]}},{"type":"Feature","properties":{"name":"Chianche Ceppaloni","id_staz":"S09510","id_reg":18},"geometry":{"type":"Point","coordinates":[14.777618,41.050122]}},{"type":"Feature","properties":{"name":"Chiaravalle","id_staz":"S07201","id_reg":11},"geometry":{"type":"Point","coordinates":[13.327655,43.595503]}},{"type":"Feature","properties":{"name":"Chiari","id_staz":"S01713","id_reg":1},"geometry":{"type":"Point","coordinates":[9.926474,45.54011]}},{"type":"Feature","properties":{"name":"Chiarone","id_staz":"S08007","id_reg":13},"geometry":{"type":"Point","coordinates":[11.446123,42.387528]}},{"type":"Feature","properties":{"name":"Chiasso","id_staz":"S01301","id_reg":1},"geometry":{"type":"Point","coordinates":[9.03421,45.830736]}},{"type":"Feature","properties":{"name":"Chiavari","id_staz":"S04722","id_reg":2},"geometry":{"type":"Point","coordinates":[9.322464,44.315156]}},{"type":"Feature","properties":{"name":"Chiavenna","id_staz":"S01400","id_reg":1},"geometry":{"type":"Point","coordinates":[9.407129,46.321258]}},{"type":"Feature","properties":{"name":"Chieri","id_staz":"S00500","id_reg":3},"geometry":{"type":"Point","coordinates":[7.827077,45.007008]}},{"type":"Feature","properties":{"name":"Chieti","id_staz":"S07712","id_reg":19},"geometry":{"type":"Point","coordinates":[14.13815,42.356905]}},{"type":"Feature","properties":{"name":"Chieuti Serracapriola","id_staz":"S11021","id_reg":16},"geometry":{"type":"Point","coordinates":[15.156645,41.921962]}},{"type":"Feature","properties":{"name":"Chignolo Po","id_staz":"S01868","id_reg":1},"geometry":{"type":"Point","coordinates":[9.494196,45.160942]}},{"type":"Feature","properties":{"name":"Chioggia","id_staz":"S05428","id_reg":12},"geometry":{"type":"Point","coordinates":[12.275235,45.210243]}},{"type":"Feature","properties":{"name":"Chiomonte","id_staz":"S00206","id_reg":3},"geometry":{"type":"Point","coordinates":[6.988716,45.119876]}},{"type":"Feature","properties":{"name":"Chirialza","id_staz":"S12899","id_reg":20},"geometry":{"type":"Point","coordinates":[9.36732,40.830877]}},{"type":"Feature","properties":{"name":"Chiuduno","id_staz":"S01536","id_reg":1},"geometry":{"type":"Point","coordinates":[9.846924,45.650449]}},{"type":"Feature","properties":{"name":"Chiuro","id_staz":"S01435","id_reg":1},"geometry":{"type":"Point","coordinates":[9.992317,46.164658]}},{"type":"Feature","properties":{"name":"Chiusa ","id_staz":"S02017","id_reg":9},"geometry":{"type":"Point","coordinates":[11.572678,46.642611]}},{"type":"Feature","properties":{"name":"Chiusano Cossombrone","id_staz":"S00429","id_reg":3},"geometry":{"type":"Point","coordinates":[8.128822,44.985034]}},{"type":"Feature","properties":{"name":"Chiusi C.T.","id_staz":"S06925","id_reg":13},"geometry":{"type":"Point","coordinates":[11.957893,43.002466]}},{"type":"Feature","properties":{"name":"Chivasso","id_staz":"S00232","id_reg":3},"geometry":{"type":"Point","coordinates":[7.889666,45.193637]}},{"type":"Feature","properties":{"name":"Ciampino","id_staz":"S08650","id_reg":5},"geometry":{"type":"Point","coordinates":[12.599546,41.804442]}},{"type":"Feature","properties":{"name":"Ciardes","id_staz":"S02209","id_reg":9},"geometry":{"type":"Point","coordinates":[10.940542,46.635274]}},{"type":"Feature","properties":{"name":"Cinisi Terrasini","id_staz":"S12126","id_reg":14},"geometry":{"type":"Point","coordinates":[13.096673,38.155314]}},{"type":"Feature","properties":{"name":"Cirella Majera`","id_staz":"S11730","id_reg":17},"geometry":{"type":"Point","coordinates":[15.812289,39.708556]}},{"type":"Feature","properties":{"name":"Ciro'","id_staz":"S11820","id_reg":17},"geometry":{"type":"Point","coordinates":[17.116997,39.368701]}},{"type":"Feature","properties":{"name":"Cisano Caprino Bergamasco","id_staz":"S01525","id_reg":1},"geometry":{"type":"Point","coordinates":[9.474261,45.739606]}},{"type":"Feature","properties":{"name":"Cismon Del Grappa","id_staz":"S02500","id_reg":12},"geometry":{"type":"Point","coordinates":[11.729272,45.919664]}},{"type":"Feature","properties":{"name":"Cisterna Di Latina","id_staz":"S08603","id_reg":5},"geometry":{"type":"Point","coordinates":[12.827538,41.586511]}},{"type":"Feature","properties":{"name":"Cisternino","id_staz":"S11131","id_reg":16},"geometry":{"type":"Point","coordinates":[17.456899,40.816652]}},{"type":"Feature","properties":{"name":"Citerna Taro","id_staz":"S06154","id_reg":8},"geometry":{"type":"Point","coordinates":[10.032939,44.63548]}},{"type":"Feature","properties":{"name":"Cittadella","id_staz":"S02535","id_reg":12},"geometry":{"type":"Point","coordinates":[11.789857,45.643868]}},{"type":"Feature","properties":{"name":"Cittaducale","id_staz":"S07406","id_reg":5},"geometry":{"type":"Point","coordinates":[12.94269,42.387764]}},{"type":"Feature","properties":{"name":"Citta` Della Pieve","id_staz":"S08200","id_reg":6},"geometry":{"type":"Point","coordinates":[11.971127,42.936221]}},{"type":"Feature","properties":{"name":"Civate","id_staz":"S01462","id_reg":1},"geometry":{"type":"Point","coordinates":[9.352877,45.831295]}},{"type":"Feature","properties":{"name":"Civita Castellana","id_staz":"S08211","id_reg":5},"geometry":{"type":"Point","coordinates":[12.453821,42.346593]}},{"type":"Feature","properties":{"name":"Civita D`Antino-Morino","id_staz":"S08853","id_reg":19},"geometry":{"type":"Point","coordinates":[13.458868,41.870632]}},{"type":"Feature","properties":{"name":"Civitanova Marche","id_staz":"S07506","id_reg":11},"geometry":{"type":"Point","coordinates":[13.7257,43.3091]}},{"type":"Feature","properties":{"name":"Civitavecchia","id_staz":"S08010","id_reg":5},"geometry":{"type":"Point","coordinates":[11.79815,42.088287]}},{"type":"Feature","properties":{"name":"Civitavecchia M.Ma","id_staz":"S08012","id_reg":5},"geometry":{"type":"Point","coordinates":[11.78438,42.099843]}},{"type":"Feature","properties":{"name":"Civitavecchia Viale Della Vittoria","id_staz":"S08024","id_reg":5},"geometry":{"type":"Point","coordinates":[11.800599,42.086518]}},{"type":"Feature","properties":{"name":"Civitella Paganico","id_staz":"S06822","id_reg":13},"geometry":{"type":"Point","coordinates":[11.283536,42.94028]}},{"type":"Feature","properties":{"name":"Civitella Roveto","id_staz":"S08852","id_reg":19},"geometry":{"type":"Point","coordinates":[13.424882,41.916419]}},{"type":"Feature","properties":{"name":"Cixerri","id_staz":"S12970","id_reg":20},"geometry":{"type":"Point","coordinates":[8.578934,39.26982]}},{"type":"Feature","properties":{"name":"Classe","id_staz":"S05812","id_reg":8},"geometry":{"type":"Point","coordinates":[12.234995,44.382033]}},{"type":"Feature","properties":{"name":"Coccaglio","id_staz":"S01540","id_reg":1},"geometry":{"type":"Point","coordinates":[9.977648,45.560971]}},{"type":"Feature","properties":{"name":"Cocconato","id_staz":"S00425","id_reg":3},"geometry":{"type":"Point","coordinates":[8.070145,45.082926]}},{"type":"Feature","properties":{"name":"Cocullo","id_staz":"S08534","id_reg":19},"geometry":{"type":"Point","coordinates":[13.776636,42.040723]}},{"type":"Feature","properties":{"name":"Codogno","id_staz":"S01828","id_reg":1},"geometry":{"type":"Point","coordinates":[9.701376,45.154897]}},{"type":"Feature","properties":{"name":"Codola","id_staz":"S09703","id_reg":18},"geometry":{"type":"Point","coordinates":[14.665622,40.767687]}},{"type":"Feature","properties":{"name":"Codroipo","id_staz":"S02831","id_reg":10},"geometry":{"type":"Point","coordinates":[12.976543,45.9657]}},{"type":"Feature","properties":{"name":"Cogoleto","id_staz":"S04532","id_reg":2},"geometry":{"type":"Point","coordinates":[8.643906,44.389762]}},