name	id_staz	id_reg	lat	lon
Abano Terme	S05700	12	45.355199	11.811533
Abbadia Lariana	S01416	1	45.895864	9.335175
Abbasanta	S12873	20	40.128801	8.817733
Abbiategrasso	S01062	1	45.400631	8.921305
Acate	S12409	14	36.996592	14.42545
Acciano	S07423	19	42.175994	13.711345
Acerra	S09215	18	40.939066	14.372243
Acireale	S12328	14	37.600514	15.163697
Acqua Acetosa	S08715	5	41.794294	12.616449
Acquafredda	S11722	15	40.035527	15.671846
Acquanegra Cremonese	S01913	1	45.172102	9.888456
Acquappesa	S11736	17	39.48648	15.955992
Acquaviva	S12209	14	37.570258	13.674927
Acquaviva Delle Fonti	S11504	16	40.892806	16.839826
Acquedolci-S.Fratello	S12026	14	38.058459	14.587597
Acqui Terme	S00867	3	44.67407	8.474482
Acri Bisignano Luzzi	S11907	17	39.441389	16.245177
Adria	S05420	12	45.06058	12.054228
Africo Nuovo	S11872	17	38.053759	16.144283
Agliano Castelnuovo Calcea	S00804	3	44.786108	8.267723
Agrigento Bassa	S12213	14	37.319148	13.588094
Agrigento Centrale	S12216	14	37.309051	13.584412
Agropoli Castellabate	S11705	18	40.351521	15.002053
Airasca	S00514	3	44.928093	7.483536
Airole	S04481	2	43.870494	7.552757
Airuno	S01515	1	45.754086	9.422066
Ala	S02049	9	45.760087	10.996775
Alanno	S07708	19	42.287185	14.019595
Alano Fener Valdobbiadene	S02566	12	45.90229	11.944546
Alassio	S04515	2	44.007889	8.17112
Alba	S00825	3	44.697713	8.030629
Alba Adriatica Nereto Contr.	S07800	19	42.83438	13.91733
Albacina	S07207	11	43.345686	12.986501
Albano Di Lucania	S11453	15	40.574707	16.021247
Albano Laziale	S08704	5	41.72632	12.658056
Albano S.Alessandro	S01534	1	45.682744	9.768027
Albanova	S09004	18	40.996117	14.128596
Albaredo	S02538	12	45.670265	12.015104
Albate Camerlata	S01310	1	45.777371	9.073461
Albate-Trecallo	S01450	1	45.777391	9.095752
Albenga	S04516	2	44.04722	8.221663
Alberese	S08001	13	42.634158	11.1352
Albinia	S08003	13	42.502165	11.21134
Albisola	S04529	2	44.33469	8.512092
Albizzate Solbiate Arno	S01209	1	45.724117	8.80621
Albonese	S00033	1	45.297785	8.714601
Albuzzano	S01863	1	45.172504	9.261624
Alcamo Diramazione	S12150	14	37.978894	12.915916
Alcantara	S12320	14	37.82145	15.251158
Alessandria	S00470	3	44.909091	8.606498
Alfedena-Scontrone	S08908	19	41.738222	14.044662
Alfonsine	S05808	8	44.512364	12.039155
Alice Belcolle	S00809	3	44.722636	8.440076
Ali` Terme	S12310	14	38.013952	15.435184
Allerona-Castel Viscardo	S08202	6	42.78502	12.035236
Alpignano	S00216	3	45.091077	7.523745
Altamura	S11307	16	40.837666	16.551739
Altare	S04810	2	44.336169	8.332753
Altavilla Irpina	S09511	18	41.015265	14.782833
Altavilla M.	S12011	14	38.048392	13.554421
Altavilla Tavernelle	S02444	12	45.511805	11.454702
Altopascio	S06407	13	43.817418	10.672754
Alviano	S08206	6	42.591917	12.259583
Amantea	S11744	17	39.134353	16.068448
Ambivere Mapello	S01527	1	45.722163	9.550444
Amendola	S11051	16	41.518025	15.732569
Amendolara Oriolo	S11807	17	39.933731	16.60308
Amorosi Melizzano	S09306	18	41.173509	14.470759
Anagni-Fiuggi	S08658	5	41.71037	13.09597
Ancona	S07113	11	43.607734	13.497665
Ancona Marittima	S07116	11	43.619445	13.50911
Ancona Torrette	S07015	11	43.609936	13.455777
Anconetta	S02141	12	45.565249	11.567865
Andora	S04513	2	43.952003	8.139319
Angri	S09812	18	40.746404	14.575366
Anguillara	S08318	5	42.068133	12.304978
Annone Veneto	S02769	12	45.774904	12.680334
Antignano	S06727	13	43.492482	10.328827
Antrodoco Borgo Velino	S07408	5	42.415393	13.076193
Antrodoco Centro	S07435	5	42.409844	13.07096
Anversa-Villalago-Scanno	S08537	19	42.017261	13.835618
Anzano Del Parco	S01453	1	45.764965	9.202676
Anzio	S08709	5	41.4532	12.633205
Anzio Colonia	S08713	5	41.459893	12.617442
Aosta	S00137	4	45.73407	7.322424
Aosta Istituto	S00143	4	45.732938	7.303076
Aosta Viale Europa	S00146	4	45.733294	7.297371
Apice S.Arcangelo Bonito	S09314	18	41.140927	14.918733
Appiano	S08328	5	41.909342	12.43838
Apricena	S11024	16	41.77664	15.387809
Aprilia	S08705	5	41.592386	12.639126
Aquilonia	S09623	18	40.940252	15.541249
Aragona Caldare	S12370	14	37.381097	13.636837
Arbia	S06811	13	43.294393	11.406225
Arce	S08861	5	41.583695	13.571848
Arcisate	S01203	1	45.858579	8.86241
Arcola	S06006	2	44.118651	9.914649
Arcore	S01510	1	45.623493	9.322798
Ardara	S12817	20	40.632139	8.818996
Ardenno Masino	S01427	1	46.16198	9.651374
Ardore	S11853	17	38.175698	16.207311
Arena Po	S01947	1	45.082065	9.360394
Arenzano	S04533	2	44.403089	8.678322
Arezzo	S06915	13	43.461725	11.874189
Argenta	S05804	8	44.616867	11.841267
Ariano Irpino	S09316	18	41.181883	15.117508
Arona	S01020	3	45.755392	8.559075
Arpino	S08859	5	41.648296	13.59959
Arquata Scrivia	S04207	3	44.692533	8.885342
Arqua`	S05707	12	45.006465	11.748518
Arsoli	S08516	5	42.045852	13.013064
Artegna	S03021	10	46.23115	13.162328
Arvier	S00134	4	45.704259	7.166681
Ascea	S11711	18	40.140955	15.172626
Asciano	S06813	13	43.235245	11.579237
Asciano Monte Oliveto Maggiore	S06825	13	43.231706	11.563621
Ascoli Piceno	S07550	11	42.855474	13.587939
Ascoli Satriano	S11203	16	41.219859	15.547828
Asola	S01847	1	45.220454	10.402313
Assemini	S12889	20	39.287603	8.997936
Assisi	S07008	6	43.058921	12.585304
Asso	S01101	1	45.855228	9.268513
Asti	S00462	3	44.89479	8.208112
Atena	S09904	18	40.456676	15.536094
Attigliano	S08207	6	42.518054	12.294761
Augusta	S12345	14	37.24334	15.218628
Auletta	S09902	18	40.534934	15.426706
Aulla	S06168	13	44.209662	9.970632
Aulla Lunigiana	S06013	13	44.210555	9.970015
Aurisina	S03550	10	45.753943	13.687706
Avellino	S09514	18	40.921612	14.820586
Aversa	S09006	18	40.973323	14.218578
Avezzano	S08526	19	42.039495	13.426446
Aviano	S03087	10	46.064362	12.590686
Avigliana	S00214	3	45.085276	7.401096
Avigliano Lucania	S11214	15	40.714667	15.785619
Avio	S02050	9	45.733892	10.955842
Avise	S00133	4	45.706296	7.131285
Avola	S12426	14	36.907434	15.125733
Bari Centrale	S11119	16	41.11774	16.869601
Bologna C.Le	S05043	8	44.50626	11.342267
Badia Polesine	S02370	12	45.094439	11.484722
Badolato	S11841	17	38.572268	16.567646
Bagheria	S12008	14	38.089905	13.507215
Bagnacavallo	S05902	8	44.412138	11.969398
Bagnara	S11770	17	38.282695	15.800327
Bagnaria Arsa	S03123	10	45.885513	13.282026
Bagnasco	S00921	3	44.303264	8.046132
Bagni Di Lucca	S06308	13	44.003447	10.551631
Bagni Di Tivoli	S08504	5	41.949593	12.722208
Bagnoli Agnano Terme	S09102	18	40.819444	14.166694
Bagnoli Irpino	S09613	18	40.83917	15.06324
Bagnolo Mella	S01901	1	45.428532	10.183617
Baiano Di Spoleto	S07224	6	42.726238	12.663615
Baldichieri	S00460	3	44.899204	8.091198
Balestrate	S12122	14	38.053364	13.007374
Balsorano	S08856	19	41.809427	13.556546
Balvano R.	S09830	15	40.649993	15.495304
Balzola	S00178	3	45.173985	8.402174
Bandito	S00732	3	44.722075	7.819452
Baragiano	S09832	15	40.695213	15.569206
Baranello	S09458	7	41.5176	14.596314
Barbianello	S01932	1	45.07263	9.204165
Barbiano	S05905	8	44.387263	11.878086
Barbusi	S12971	20	39.203024	8.501702
Barcellona	S12041	14	38.14918	15.212499
Bardonecchia	S00202	3	45.076447	6.709959
Barga Gallicano	S06303	13	44.068114	10.451938
Bari Palese Macchie	S11118	16	41.151583	16.766902
Bari Parco Nord	S11148	16	41.123916	16.837018
Bari Parco Sud	S11125	16	41.111822	16.914736
Bari S. Spirito	S11116	16	41.159653	16.746324
Bari S.Andrea	S11513	16	41.105467	16.830255
Bari S.Giorgio	S11150	16	41.093779	16.950084
Bari Torre A Mare	S11126	16	41.082637	16.995772
Baricetta	S05419	12	45.060889	11.995348
Barile	S11208	15	40.943044	15.670959
Barletta	S11108	16	41.315227	16.278867
Baronissi	S09520	18	40.743779	14.77224
Baschi-Montecchio	S08204	6	42.68685	12.203496
Basiliano	S02832	10	46.012737	13.109233
Bassano Del Grappa	S02520	12	45.766697	11.741525
Bassano In Teverina	S08208	6	42.483551	12.333556
Bassano Romano	S08312	5	42.212444	12.152302
Bastia	S07007	6	43.07133	12.547735
Bastia Mondovi`	S00908	3	44.439398	7.891671
Battaglia Terme	S05702	12	45.291475	11.77838
Battipaglia	S09823	18	40.605789	14.98324
Bauladu Milis	S12875	20	40.020722	8.687123
Baveno	S01015	3	45.909105	8.502121
Bazzana	S00807	3	44.777094	8.401557
Beaulard	S00203	3	45.046495	6.759713
Beffi	S07422	19	42.197341	13.660759
Beinette	S00901	3	44.36782	7.644884
Belgioioso	S01864	1	45.16456	9.316875
Belgirate	S01017	3	45.843337	8.570821
Bella Muro	S09831	15	40.700914	15.542936
Bellano Tartavelle Terme	S01409	1	46.039448	9.302776
Bellante Ripattone	S07902	19	42.705775	13.837978
Bellaria	S05817	8	44.150249	12.461168
Bellavista	S11512	16	40.517077	17.176892
Bellinzago	S00985	3	45.566681	8.627652
Bellisio Solfare	S07061	11	43.520379	12.823977
Belluno	S02559	12	46.141594	12.209703
Belmonte Calabro	S11743	17	39.164427	16.064515
Belvedere Marittimo	S11732	17	39.616549	15.853039
Benevento	S09311	18	41.141901	14.769998
Benevento Arco Traiano	S09530	18	41.136834	14.777662
Benevento Porta Rufina	S09509	18	41.123564	14.784315
Berceto	S06158	8	44.555912	9.931759
Berchidda	S12859	20	40.772052	9.181312
Bergamasco	S00838	3	44.819891	8.461447
Bergamo	S01529	1	45.690271	9.675082
Bernalda	S11460	15	40.397616	16.682281
Besana	S01488	1	45.702824	9.28288
Besnate	S01145	1	45.695409	8.761072
Besozzo	S01141	1	45.842188	8.662997
Beura Cardezza	S01007	3	46.068341	8.289627
Bevera	S04482	2	43.825303	7.579157
Bevilacqua	S02391	12	45.230145	11.398643
Biagioni Lagacci	S05119	8	44.086359	10.948257
Bianco	S11855	17	38.089072	16.153348
Bianze`	S00238	3	45.309488	8.115523
Bianzone	S01438	1	46.179383	10.112507
Biassono-Lesmo Parco	S01483	1	45.632209	9.298408
Bibiana	S00522	3	44.809941	7.285727
Bicocca	S12338	14	37.460617	15.044594
Biella Chiavazza	S00970	3	45.568084	8.066787
Biella S.Paolo	S00070	3	45.557334	8.067541
Biforco	S06611	13	44.068431	11.602243
Binario S.Marco Vecchio	S06950	13	43.790336	11.267403
Bisceglie	S11113	16	41.235445	16.499484
Bistagno	S00870	3	44.659256	8.372057
Bisuschio Viggiu	S01202	1	45.870658	8.887544
Bitetto Palo Del Colle	S11501	16	41.041481	16.74053
Bivio D`Aurisina	S03313	10	45.754253	13.655777
Boccia Al Mauro	S09763	18	40.732794	14.471878
Bogliasco	S04709	2	44.379207	9.066042
Boiano	S09453	7	41.487883	14.474551
Bolgheri	S06028	13	43.244664	10.550548
Bologna Borgo Panigale	S05100	8	44.515024	11.284728
Bologna C.Le/Av	S05046	8	44.50626	11.342267
Bologna Corticella	S05725	8	44.551985	11.35401
Bologna Fiere	S05020	8	44.512742	11.368809
Bologna Mazzini	S05140	8	44.482284	11.376271
Bologna Ravone	S05042	8	44.510244	11.320029
Bologna S.Ruffillo	S05130	8	44.462657	11.372967
Bolzano 	S02026	22	46.496346	11.358556
Bolzano Novarese	S00014	3	45.759357	8.440754
Bolzano Sud 	S02226	9	46.472617	11.33334
Bonassola	S04730	2	44.184867	9.582673
Bonefro S.Croce	S09464	7	41.710522	14.860799
Bonferraro	S02383	12	45.185651	11.009247
Bonorva	S12867	20	40.417763	8.760707
Bordighera	S04503	2	43.778313	7.663504
Borghetto	S02051	9	45.696721	10.927083
Borghetto Parmense	S06100	8	44.837198	10.1177
Borghetto Santo Spirito	S04518	2	44.109006	8.242346
Borgio Verezzi	S04521	2	44.157722	8.30908
Borgo	S09526	18	40.845976	14.784092
Borgo A Buggiano	S06410	13	43.880724	10.730079
Borgo A Mozzano	S06309	13	43.977207	10.541285
Borgo Fornari Per Voltaggio	S04214	2	44.588379	8.938295
Borgo Lavezzaro	S00032	3	45.318783	8.703242
Borgo Revel	S00171	3	45.189827	8.02021
Borgo S. Lorenzo	S06604	13	43.959822	11.380422
Borgo S.L.Rimorelli	S06704	13	43.953279	11.400076
Borgo S.Martino	S00315	3	45.087083	8.520661
Borgo San Dalmazzo	S00613	3	44.326249	7.486111
Borgo Ticino	S00981	3	45.691943	8.602483
Borgo Val Di Taro	S06161	8	44.486522	9.781489
Borgo Valsugana Centro	S02313	21	46.051182	11.453967
Borgo Valsugana Est	S02314	9	46.05224	11.462119
Borgo Vercelli	S00246	3	45.359252	8.461474
Borgoforte	S02338	1	45.050328	10.752388
Borgofranco	S00152	3	45.514775	7.854612
Borgolombardo	S01830	1	45.403856	9.27111
Borgomanero	S00016	3	45.701054	8.468093
Borgone	S00210	3	45.123191	7.236037
Borgoratto	S00860	3	44.835999	8.538182
Borgosesia	S00104	3	45.716798	8.28239
Borore	S12872	20	40.218992	8.809535
Boschi S.Anna	S02390	12	45.217328	11.362302
Bosco Redole	S09452	7	41.459299	14.587884
Boscoreale	S09754	18	40.770786	14.48017
Botricello	S11829	17	38.933943	16.857433
Bova Marina	S11860	17	37.930269	15.923897
Bovalino	S11854	17	38.149087	16.180584
Bovino Deliceto	S09321	16	41.27835	15.369255
Bovolone	S02363	12	45.254446	11.123862
Bozzolo	S01920	1	45.107246	10.472655
Bra	S00821	3	44.693556	7.848643
Bracciano	S08315	5	42.103667	12.173023
Bragno	S04803	2	44.371679	8.304473
Brancaleone	S11857	17	37.965475	16.103301
Brandizzo	S00231	3	45.178915	7.841218
Breil Sur Roya	S00622	3	43.890267	7.530915
Brenna-Alzate	S01452	1	45.754044	9.183312
Brennero	S02001	22	47.004117	11.505711
Brescia	S01717	1	45.532315	10.212828
Bressana Argine	S01930	1	45.072739	9.137038
Bressana Bottarone	S01805	1	45.086298	9.110602
Bressanone	S02014	9	46.710088	11.649677
Briatico	S11757	17	38.725447	16.025765
Bricherasio	S00521	3	44.824336	7.307513
Brindisi	S11136	16	40.634339	17.938978
Brindisi Di Montagna	S11451	15	40.611991	15.955795
Brindisi Marittima	S11137	16	40.633543	17.94863
Briona	S00113	3	45.538568	8.479541
Brisighella	S06614	8	44.220565	11.769757
Brolo Ficarra	S12031	14	38.159204	14.830176
Broni	S01944	1	45.066263	9.258751
Bronzolo 	S02030	9	46.40505	11.315833
Brozolo	S00424	3	45.121299	8.05893
Brunico 	S02107	9	46.794922	11.929989
Bruno	S00837	3	44.797947	8.439639
Bruzolo	S00209	3	45.131032	7.201497
Buccino S.	S09828	18	40.600806	15.374199
Bucine	S06911	13	43.480478	11.617609
Budoia Polcenigo	S03088	10	46.031464	12.537637
Bugnara	S08538	19	42.031166	13.862082
Buonconvento	S06874	13	43.135503	11.483773
Buonfornello	S12016	14	37.972052	13.816408
Buronzo	S00054	3	45.47179	8.2667
Busalla	S04215	2	44.57558	8.943611
Busca	S00704	3	44.520585	7.481589
Busche Lentiai Mel	S02563	12	46.040092	11.979251
Busseto	S01963	8	44.974692	10.038909
Bussi	S07704	19	42.194154	13.849075
Bussoleno	S00208	3	45.139631	7.144819
Busto Arsizio	S01031	1	45.616164	8.865031
Buttafava	S01482	1	45.62141	9.301185
Buttapietra	S05301	12	45.338787	10.988059
Buttrio	S03029	10	46.012664	13.329039
Cadeo	S05006	8	44.967283	9.853181
Cagliari	S12891	20	39.216078	9.107984
Cagliari Elmas	S12890	20	39.264193	9.045497
Cairo Montenotte	S00879	2	44.394747	8.278786
Cala Sabina	S12851	20	41.011012	9.5881
Calalzo Pieve Cadore Cortina	S02550	12	46.443829	12.388668
Calamandrana	S00833	3	44.738986	8.331572
Calatabiano	S12321	14	37.814684	15.226568
Calatafimi	S12151	14	37.938858	12.856156
Calceranica	S02307	9	46.007384	11.240713
Calciano	S11455	15	40.595117	16.202526
Calcio	S01712	1	45.532937	9.841342
Calde`	S01117	1	45.945812	8.663157
Caldiero	S02437	12	45.41407	11.169753
Caldonazzo	S02308	9	45.997575	11.264815
Calenzano	S06417	13	43.856429	11.14537
Calitri Pescopagano	S09620	18	40.884932	15.427962
Calolziocorte Olginate	S01524	1	45.801619	9.42698
Calopezzati	S11815	17	39.579022	16.819361
Caltagirone	S12270	14	37.225276	14.521165
Caltanissetta Centrale	S12381	14	37.48829	14.057396
Caltanissetta Xirbi	S12380	14	37.536296	14.056902
Caltignaga	S00020	3	45.519167	8.591602
Calusco	S01503	1	45.684113	9.470646
Caluso	S00158	3	45.303194	7.902568
Calvisano	S01843	1	45.346572	10.349411
Camaiore Lido Capezzano	S06043	13	43.912176	10.24765
Cambiano	S06804	13	43.631183	10.958997
Cambiano Santena	S00456	3	44.966491	7.773225
Cammarata S.Giovanni Gemini	S12207	14	37.653759	13.673791
Camnago-Lentate	S01316	1	45.668425	9.133451
Camogli San Fruttuoso	S04716	2	44.348166	9.156743
Campagna Serre Persano	S09825	18	40.595667	15.113986
Campello	S07219	6	42.822814	12.761253
Campiglia Marittima	S06031	13	43.017118	10.586558
Campo Di Carne	S08706	5	41.552116	12.635125
Campo Di Giove	S08903	19	42.007967	14.041492
Campo Di Giove-Monte Maiella	S08919	19	41.993262	14.069088
Campo Di Nusco	S09626	18	40.879143	15.129255
Campo Di Trens 	S02007	9	46.869076	11.488231
Campobasso	S09459	7	41.558137	14.66393
Campobello Di Mazara	S12112	14	37.636256	12.733165
Campobello Ravanusa	S12385	14	37.265731	13.946251
Campodarsego	S02527	12	45.505721	11.900894
Campofelice	S12017	14	37.992615	13.876549
Campofranco	S12211	14	37.510105	13.686777
Campolattaro	S09505	18	41.285869	14.726853
Campoleone	S08602	5	41.642396	12.648341
Campolieto Monacilioni	S09462	7	41.642573	14.76544
Campoligure Masone	S04105	2	44.530909	8.700878
Campomaggiore	S11454	15	40.550772	16.086766
Campomarino	S11020	7	41.957398	15.042416
Campomela	S12815	20	40.68139	8.638875
Campomigliaio	S06659	13	43.937241	11.303593
Campora S.Giov. Serra Aiello	S11745	17	39.068402	16.09102
Camporgiano	S06324	13	44.161448	10.334849
Camposampiero	S02525	12	45.568922	11.928293
Camposanto	S05314	8	44.787527	11.143587
Camucia Cortona	S06921	13	43.261104	11.971245
Cancelliera	S08735	5	41.710587	12.621758
Cancello	S09213	18	40.993063	14.418877
Cancello Arnone	S09002	18	41.063369	14.02901
Candela	S11204	16	41.151439	15.533163
Candelo	S00071	3	45.547433	8.100103
Candia Canavese	S00157	3	45.329824	7.891819
Candia Lomellina	S00333	1	45.179911	8.593156
Candida	S11105	16	41.346664	15.996588
Candiolo	S00512	3	44.961155	7.598973
Candoglia Ornavasso	S01011	3	45.977489	8.419715
Canegrate	S01034	1	45.569235	8.926593
Canelli	S00832	3	44.716716	8.294544
Canetra	S07429	5	42.391578	13.029159
Canicatti`	S12375	14	37.359879	13.855395
Caniga	S12812	20	40.716116	8.526395
Cannara	S07009	6	43.019591	12.628709
Canne Della Battaglia	S11406	16	41.294583	16.146169
Canneto Sull`Oglio	S01848	1	45.150211	10.37147
Canosa Di Puglia	S11402	16	41.218556	16.053906
Cantalupo Del Sannio	S09451	7	41.5174	14.6671
Cantu`	S01451	1	45.752316	9.130321
Cantu`- Cermenate	S01313	1	45.716236	9.099284
Caorso	S01970	8	45.042048	9.868157
Capaccio Roccadaspide	S11702	18	40.454518	15.013551
Capaci	S12128	14	38.171794	13.232398
Capalbio	S08006	13	42.407974	11.370982
Capannelle	S08672	5	41.830713	12.568884
Capistrello	S08850	19	41.97051	13.399276
Capo Bonifati	S11734	17	39.558342	15.874052
Capo D`Orlando-Naso	S12030	14	38.157941	14.744844
Capo Spartivento	S11858	17	37.924778	16.058342
Capodacqua Pieve Fanonica	S07215	6	43.026769	12.7541
Cappelle-Magliano	S08525	19	42.059369	13.372468
Capralba	S01603	1	45.443871	9.640015
Capranica	S08311	5	42.245195	12.157194
Caprarola	S08110	5	42.303815	12.258238
Capriati Al Volturno	S09061	7	41.44279	14.070664
Capriolo	S01622	1	45.64556	9.933806
Capriva	S03301	10	45.938764	13.517494
Capua	S09208	18	41.101306	14.210347
Carate-Calo`	S01486	1	45.676451	9.252304
Caravaggio	S01602	1	45.491158	9.637723
Carbona	S05120	8	44.246876	11.09618
Carbonara Scrivia	S04300	3	44.860173	8.853772
Carbonia Serbariu	S12818	20	39.169508	8.509186
Cardillo Zen	S12140	14	38.17495	13.296897
Carentino	S00839	3	44.831303	8.470474
Cariati	S11818	17	39.496884	16.952018
Carimate	S01315	1	45.697094	9.107188
Carini	S12127	14	38.147696	13.186624
Carini Torre Ciachea	S12799	14	38.16149	13.219641
Carisio	S00055	3	45.403164	8.21249
Carmagnola	S00601	3	44.846944	7.72797
Carmignano Di Brenta	S02532	12	45.621354	11.714891
Carnate Usmate	S01511	1	45.653072	9.375089
Carnia	S03016	10	46.373634	13.132847
Caronia	S12025	14	38.034475	14.443761
Carovigno	S11133	16	40.737337	17.683791
Carovilli-Roccasicura	S08914	7	41.712485	14.299732
Carpane`Valstagna	S02502	12	45.860128	11.661183
Carpi	S02349	8	44.782919	10.891952
Carpignano Sesia	S00971	3	45.528934	8.422898
Carpinone	S09050	7	41.588038	14.326783
Carrara Avenza	S06005	13	44.051239	10.062927
Carrito-Ortona	S08533	19	42.026506	13.720179
Carruba	S12326	14	37.694344	15.196143
Carru` Clavesana	S00738	3	44.479548	7.891414
Carsoli	S08519	19	42.09578	13.080388
Casabianca	S08730	5	41.788327	12.60431
Casacalenda Guardialfiera	S09465	7	41.738109	14.849602
Casal Sabini	S11309	16	40.799021	16.647908
Casalbordino Pollutri	S07821	19	42.193653	14.633045
Casalbuono	S09910	18	40.214093	15.686095
Casalbuttano	S01609	1	45.255398	9.962361
Casale Monferrato	S00314	3	45.133928	8.460292
Casale Popolo	S00179	3	45.160434	8.44055
Casalecchio Di Reno	S05101	8	44.474298	11.276097
Casalecchio Garibaldi	S05111	8	44.482995	11.272474
Casaleggio	S00972	3	45.491298	8.490369
Casaletto Vaprio	S01604	1	45.408641	9.631746
Casalmaggiore	S01850	1	44.993139	10.425023
Casalnuovo	S09216	18	40.915559	14.35296
Casalpusterlengo	S01827	1	45.182473	9.653627
Casarsa	S02830	10	45.953002	12.8406
Cascina	S06505	13	43.674542	10.545225
Caserta	S09211	18	41.068655	14.328457
Casino Di Terra	S06751	13	43.328581	10.662975
Casletto-Rogeno	S01457	1	45.786028	9.275375
Casorate Sempione	S01029	1	45.675075	8.743954
Casoria	S09009	18	40.907762	14.29874
Cassago-Nibionno-Bulciago	S01490	1	45.746243	9.279834
Cassano All`Ionio	S11900	17	39.726326	16.35218
Cassano D`Adda	S01707	1	45.514372	9.512746
Cassano Irpino	S09611	18	40.869227	15.031213
Cassine	S00864	3	44.751513	8.533613
Cassino	S08671	5	41.484306	13.832125
Cassola	S02506	12	45.732291	11.795866
Castagnaro	S02368	12	45.119349	11.403936
Castagneto Carducci	S06029	13	43.16816	10.56399
Castagno	S05122	13	44.012359	10.91538
Castagnole Delle Lanze	S00828	3	44.749341	8.152836
Casteggio	S01942	1	45.017365	9.124595
Castel Bagnolo Di Orte	S08114	5	42.400183	12.400781
Castel Di Sangro	S08910	19	41.777829	14.112049
Castel D`Ario	S02382	1	45.183399	10.97531
Castel Gandolfo	S08703	5	41.746946	12.652266
Castel Lagopesole	S11212	15	40.787682	15.758093
Castel Madama	S08510	5	41.988389	12.864938
Castel S.Angelo	S07407	5	42.379666	13.017612
Castel S.Giorgio Roccapiemonte	S09704	18	40.758713	14.692352
Castel S.Giovanni	S01948	8	45.063272	9.436856
Castel S.Pietro Terme	S05053	8	44.407376	11.597681
Castelbello	S02208	9	46.626994	10.897884
Castelbolognese	S05056	8	44.325391	11.804174
Castelbuono	S12020	14	38.014606	14.108578
Casteldaccia	S12010	14	38.060474	13.536867
Casteldarne 	S02105	9	46.797708	11.844223
Casteldebole	S05102	8	44.503974	11.27456
Castelferretti	S07200	11	43.607303	13.357519
Castelfiorentino	S06802	13	43.60542	10.968048
Castelfranci	S09609	18	40.935968	15.038655
Castelfranco D'Emilia	S05037	8	44.597381	11.056408
Castelfranco Veneto	S02537	12	45.666439	11.934315
Castelguelfo	S05012	8	44.836434	10.176706
Castellalto Canzano	S07901	19	42.69564	13.793043
Castellammare Del Golfo	S12120	14	38.024309	12.912209
Castellammare Di Stabia	S09756	18	40.701398	14.483737
Castellaneta Marina	S11463	16	40.481111	16.965434
Castellazzo Casalcermelli	S04000	3	44.843839	8.589645
Castelleone	S01606	1	45.301826	9.76779
Castelletto Busca	S00720	3	44.501319	7.463939
Castelletto Ticino	S01123	3	45.710757	8.638259
Castellina Ch	S06808	13	43.408744	11.212379
Castellina Marittima	S06024	13	43.406122	10.495776
Castellino Tanaro	S00741	3	44.41657	7.974321
Castello Di Godego	S02507	12	45.688082	11.87759
Castello D`Annone	S00465	3	44.878742	8.312724
Castellucchio	S01923	1	45.144293	10.64749
Castell`Alfero	S00343	3	44.986347	8.220882
Castelmaggiore	S05724	8	44.576055	11.366901
Castelnuovo	S02093	12	45.430843	10.758273
Castelnuovo Belbo	S00836	3	44.798127	8.42516
Castelnuovo Berardenga	S06812	13	43.306882	11.484912
Castelnuovo Di Garfagnana	S06300	13	44.116351	10.409054
Castelplanio Cupramontana	S07204	11	43.481403	13.084733
Castelraimondo Camerino	S07302	11	43.210511	13.057274
Castelrosso	S00233	3	45.201802	7.932162
Castelspina Portanova	S04001	3	44.796662	8.62203
Castelvecchio Pascoli	S06302	13	44.09007	10.455061
Castelvetere	S09608	18	40.952072	15.011348
Castelvetrano	S12113	14	37.684977	12.799552
Castelvetro	S01960	8	45.100095	9.982181
Castiglion Del Lago	S06923	6	43.123195	12.032077
Castiglion Fiorentino	S06920	13	43.34075	11.914362
Castiglioncello	S06729	13	43.404619	10.414354
Castiglione Cosentino	S11909	17	39.35542	16.244388
Castiglione Di Sicilia	S12362	14	37.88674	15.097013
Castiglione In Teverina	S08205	6	42.648544	12.234913
Castione Andevenno	S01429	1	46.161659	9.806151
Castione Dei Marchesi	S01964	8	44.915157	10.044449
Castro-Pofi	S08663	5	41.533014	13.410741
Castronno	S01208	1	45.74524	8.810302
Catania Acquicella	S12337	14	37.492765	15.074699
Catania Centrale	S12332	14	37.506211	15.099417
Catania Ognina	S12331	14	37.534049	15.11261
Catanzaro	S11956	17	38.896222	16.599081
Catanzaro Lido	S11833	17	38.821788	16.612975
Catenanuova	S12244	14	37.562026	14.688263
Cattolica S.Giovanni Gabicce	S07102	8	43.959931	12.745087
Caulonia	S11846	17	38.343785	16.467278
Cava Carbonara	S00279	1	45.147055	9.071387
Cava Dei Tirreni	S09816	18	40.703662	14.708461
Cava Manara	S01804	1	45.144867	9.115332
Cava Tigozzi	S01914	1	45.156823	9.955827
Cavagnolo Brusasco	S00423	3	45.153655	8.047534
Cavalleggeri Aosta	S09113	18	40.819292	14.185679
Cavallermaggiore	S00603	3	44.708147	7.692108
Cavanella D`Adige	S05425	12	45.111263	12.249312
Cavanella Po	S05422	12	45.052208	12.134893
Cavaria Oggiona Jerago	S01210	1	45.698145	8.8035
Cavazzale	S02147	12	45.596079	11.569823
Cavi	S04724	2	44.29354	9.37251
Ca` Di Boschetti	S06044	2	44.117925	9.857449
Ceccano	S08664	5	41.573583	13.336417
Cecchina	S08732	5	41.692029	12.650992
Cecina	S06026	13	43.31028	10.514225
Cefalu`	S12019	14	38.03285	14.019526
Ceggia	S02665	12	45.688394	12.633987
Celano-Ovindoli	S08528	19	42.076999	13.543398
Celle	S04530	2	44.34246	8.542626
Celle Bulgheria Roccagloriosa	S11716	18	40.10287	15.39473
Cengio	S00745	2	44.390798	8.191824
Centallo	S00608	3	44.496223	7.591035
Centola	S11715	18	40.090672	15.34674
Ceprano-Falvaterra	S08666	5	41.523962	13.523481
Cercenasco	S00541	3	44.864897	7.495302
Cerchio	S08530	19	42.061082	13.597972
Cercina	S06956	13	43.900121	11.265279
Cerda	S12200	14	37.953964	13.78447
Cerea	S02364	12	45.196556	11.213921
Ceregnano	S05417	12	45.05062	11.870958
Ceriale	S04517	2	44.098922	8.234216
Cerignola	S11103	16	41.315664	15.897298
Cernusco-Merate	S01513	1	45.695096	9.396794
Cerreto D`Esi	S07300	11	43.32205	12.98319
Certaldo	S06803	13	43.547124	11.037711
Certosa Di Pavia	S01803	1	45.256927	9.154456
Cervaro	S11200	16	41.397604	15.595704
Cervia-Milano Marittima	S05814	8	44.258444	12.347096
Cervignano A.G.	S03207	10	45.823948	13.342866
Cervignasco	S00546	3	44.699669	7.518644
Cervo San Bartolomeo	S04512	2	43.923901	8.109704
Cesano Di Roma	S08319	5	42.061833	12.326669
Cese	S09473	18	41.210883	14.787329
Cesena	S05066	8	44.145449	12.24964
Cesenatico	S05815	8	44.20065	12.391186
Cetraro	S11735	17	39.512553	15.939263
Ceva	S00742	3	44.389861	8.031958
Chambave	S00141	4	45.744163	7.557301
Chatillon Saint Vincent	S00142	4	45.7434	7.619309
Cherasco	S00733	3	44.65261	7.867211
Chianche Ceppaloni	S09510	18	41.050122	14.777618
Chiaravalle	S07201	11	43.595503	13.327655
Chiari	S01713	1	45.54011	9.926474
Chiarone	S08007	13	42.387528	11.446123
Chiasso	S01301	1	45.830736	9.03421
Chiavari	S04722	2	44.315156	9.322464
Chiavenna	S01400	1	46.321258	9.407129
Chieri	S00500	3	45.007008	7.827077
Chieti	S07712	19	42.356905	14.13815
Chieuti Serracapriola	S11021	16	41.921962	15.156645
Chignolo Po	S01868	1	45.160942	9.494196
Chioggia	S05428	12	45.210243	12.275235
Chiomonte	S00206	3	45.119876	6.988716
Chirialza	S12899	20	40.830877	9.36732
Chiuduno	S01536	1	45.650449	9.846924
Chiuro	S01435	1	46.164658	9.992317
Chiusa 	S02017	9	46.642611	11.572678
Chiusano Cossombrone	S00429	3	44.985034	8.128822
Chiusi C.T.	S06925	13	43.002466	11.957893
Chivasso	S00232	3	45.193637	7.889666
Ciampino	S08650	5	41.804442	12.599546
Ciardes	S02209	9	46.635274	10.940542
Cinisi Terrasini	S12126	14	38.155314	13.096673
Cirella Majera`	S11730	17	39.708556	15.812289
Ciro'	S11820	17	39.368701	17.116997
Cisano Caprino Bergamasco	S01525	1	45.739606	9.474261
Cismon Del Grappa	S02500	12	45.919664	11.729272
Cisterna Di Latina	S08603	5	41.586511	12.827538
Cisternino	S11131	16	40.816652	17.456899
Citerna Taro	S06154	8	44.63548	10.032939
Cittadella	S02535	12	45.643868	11.789857
Cittaducale	S07406	5	42.387764	12.94269
Citta` Della Pieve	S08200	6	42.936221	11.971127
Civate	S01462	1	45.831295	9.352877
Civita Castellana	S08211	5	42.346593	12.453821
Civita D`Antino-Morino	S08853	19	41.870632	13.458868
Civitanova Marche	S07506	11	43.3091	13.7257
Civitavecchia	S08010	5	42.088287	11.79815
Civitavecchia M.Ma	S08012	5	42.099843	11.78438
Civitavecchia Viale Della Vittoria	S08024	5	42.086518	11.800599
Civitella Paganico	S06822	13	42.94028	11.283536
Civitella Roveto	S08852	19	41.916419	13.424882
Cixerri	S12970	20	39.26982	8.578934
Classe	S05812	8	44.382033	12.234995
Coccaglio	S01540	1	45.560971	9.977648
Cocconato	S00425	3	45.082926	8.070145
Cocullo	S08534	19	42.040723	13.776636
Codogno	S01828	1	45.154897	9.701376
Codola	S09703	18	40.767687	14.665622
Codroipo	S02831	10	45.9657	12.976543
Cogoleto	S04532	2	44.389762	8.643906
Coldrano-Martello	S02206	9	46.618902	10.821204
Colico	S01420	1	46.138019	9.375222
Colle Isarco 	S02005	9	46.937951	11.441336
Colle Mattia	S08651	5	41.832756	12.728329
Colle Val D`Elsa	S06840	13	43.421908	11.127681
Collecchio	S06151	8	44.755339	10.21228
Colleferro-Segni-Paliano	S08657	5	41.740062	13.00299
Collegno	S00217	3	45.078854	7.574131
Collesalvetti	S06018	13	43.586586	10.470534
Collevecchio	S08221	5	42.298089	12.520546
Colli Di Monte Bove	S08520	19	42.097103	13.15057
Cologne	S01539	1	45.576627	9.935316
Colorno	S01852	8	44.927943	10.382935
Comignago	S00050	3	45.714296	8.566362
Comiso	S12411	14	36.947184	14.60037
Como S. Giovanni	S01307	1	45.808946	9.072331
Compiobbi	S06902	13	43.782527	11.358695
Condofuri	S11861	17	37.92761	15.874952
Condove	S00212	3	45.106689	7.317022
Conegliano	S02706	12	45.884706	12.298909
Conselice	S05950	8	44.510987	11.831949
Contea Londa	S06702	13	43.865124	11.531603
Contesse	S12355	14	38.16193	15.544717
Contigliano	S07404	5	42.412072	12.779144
Contursi Terme	S09826	18	40.630046	15.235486
Corbetta S. Stefano	S01041	1	45.480829	8.917457
Corbezzi	S05115	13	43.993948	10.919676
Corchiano	S08112	5	42.361351	12.341846
Cordovado Sesto	S02661	10	45.850653	12.877784
Corigliano Calabro	S11812	17	39.628223	16.514949
Cormons	S03300	10	45.957519	13.461563
Corniglia	S04734	2	44.119938	9.711051
Cornino	S03053	10	46.220516	13.010581
Cornuda	S02569	12	45.833846	12.012886
Corridonia Mogliano	S07308	11	43.281616	13.477697
Corsano	S09324	18	41.164472	14.958463
Corsico	S01064	1	45.434688	9.105156
Corteolona	S01865	1	45.159701	9.375477
Cosenza	S11910	17	39.318386	16.260955
Cosio Traona	S01424	1	46.135564	9.525498
Cossato	S00973	3	45.564216	8.175964
Costa	S02375	12	45.045766	11.696511
Costa Masnaga	S01491	1	45.76343	9.285231
Costigliole (Motta Di)	S00348	3	44.807559	8.145712
Costigliole D`Asti	S00829	3	44.754882	8.20477
Costigliole Saluzzo	S00702	3	44.570196	7.482075
Cotignola	S05956	8	44.387077	11.938037
Cotilia	S07432	5	42.372602	12.96871
Cozze	S11151	16	41.017835	17.159396
Cozzo	S00332	1	45.182989	8.603292
Crema	S01605	1	45.366864	9.694209
Cremona	S01915	1	45.143215	10.017951
Crescentino	S00172	3	45.194302	8.107175
Cressa Fontaneto	S00017	3	45.646331	8.498435
Crevalcore	S05316	8	44.719156	11.152625
Crocicchie	S08317	5	42.0559	12.238888
Cropani	S11830	17	38.921968	16.813562
Crotone	S11823	17	39.0845	17.108418
Crucoli	S11819	17	39.449588	17.040718
Cucciago	S01312	1	45.740813	9.082205
Cuneo	S00610	3	44.387914	7.536235
Cuneo Gesso	S00611	3	44.394234	7.556017
Cunico Scandeluzza	S00427	3	45.036947	8.11007
Cupone	S08810	19	41.964628	13.377481
Cupramarittima	S07511	11	43.02349	13.860812
Cureggio	S00051	3	45.672538	8.456282
Cusano	S02700	10	45.945427	12.757485
Cutro	S11826	17	39.02593	16.963809
Cuzzago	S01010	3	45.993682	8.373989
Decimomannu	S12888	20	39.304593	8.965808
Dego	S00877	2	44.448003	8.308469
Deiva Marina	S04728	2	44.217306	9.519022
Delebio	S01422	1	46.13865	9.461168
Derby	S00162	4	45.730289	7.087018
Dervio	S01408	1	46.077709	9.30596
Desenzano	S02084	1	45.462677	10.536322
Desio	S01320	1	45.620112	9.218495
Diamante Buonvicino	S11731	17	39.67701	15.824278
Diano Marina	S04511	2	43.909635	8.078433
Dicomano	S06701	13	43.893489	11.519148
Diecimo - Pescaglia	S06310	13	43.959404	10.507844
Dittaino	S12240	14	37.564605	14.462429
Dobbiaco 	S02113	9	46.725049	12.225122
Dolo	S02587	12	45.453466	12.07161
Domegliara	S02055	12	45.522348	10.820408
Domodossola	S01003	3	46.115429	8.296684
Donna	S04202	3	44.818902	8.712792
Donnafugata	S12412	14	36.882055	14.568968
Donnaz	S00148	4	45.602713	7.769563
Dorio	S01407	1	46.102756	9.319063
Dormelletto	S01025	3	45.7233	8.581906
Dormelletto Paese	S00980	3	45.730032	8.574324
Dossobuono	S02330	12	45.392382	10.914831
Dronero	S00722	3	44.464974	7.423245
Dubino	S01405	1	46.172802	9.432188
Dueville	S02146	12	45.635	11.546108
Dev.Int. Dd/Av	S08220	5	42.274228	12.607523
Eboli	S09824	18	40.611057	15.052382
Eca Nasago`	S00926	3	44.160769	7.965137
Eccellente	S11788	17	38.809696	16.232598
Egna-Termeno 	S02032	9	46.319418	11.257177
Egnazia	S11154	16	40.901727	17.329607
Ellera Corciano	S07003	6	43.094699	12.318574
Empoli	S06510	13	43.715708	10.94915
Enas	S12856	20	40.85706	9.431095
Enna	S12238	14	37.581134	14.289579
Equi Terme	S06226	13	44.170282	10.153624
Este	S02396	12	45.220954	11.662931
Exilles	S00251	3	45.08999	6.927344
Firenze S.M.N.	S06421	13	43.776893	11.247373
Fabriano	S07208	11	43.345429	12.905336
Fabriano Ca` Maiano	S07059	11	43.345598	12.873939
Fabrica Di Roma	S08111	5	42.334416	12.307467
Fabro-Ficulle	S08201	6	42.874851	12.04123
Faenza	S05058	8	44.293594	11.883268
Fae`Fortogna	S02557	12	46.239439	12.294121
Fagare	S02762	12	45.70705	12.444296
Fagnano Campana	S07420	19	42.250575	13.562743
Falciano Mondragone Car.	S09001	18	41.123525	13.971792
Falconara	S12405	14	37.113529	14.052516
Falconara Marittima	S07111	11	43.630577	13.397378
Falconara Stadio	S07117	11	43.626158	13.381179
Falcone	S12038	14	38.119573	15.080467
Falerna	S11747	17	38.970726	16.14991
Fanna - Cavasso	S03083	10	46.187072	12.7707
Fano	S07105	11	43.842977	13.02478
Fanzolo	S02575	12	45.708253	11.992069
Fara	S00112	3	45.550556	8.458049
Fara Sabina	S08214	5	42.155546	12.648323
Farigliano	S00737	3	44.513337	7.90947
Fasano	S11130	16	40.851753	17.3859
Fauglia - Lorenzana	S06021	13	43.551831	10.50304
Favazzina	S11771	17	38.258742	15.756625
Federico	S12136	14	38.144862	13.344966
Felegara - S.Andrea Bagni	S06103	8	44.724809	10.114523
Felizzano	S00468	3	44.893367	8.437155
Feltre	S02564	12	46.012884	11.911493
Ferentino-Supino	S08661	5	41.6564	13.246971
Feroleto Antica Pianopoli	S11952	17	38.938255	16.36622
Ferrandina	S11458	15	40.516566	16.475276
Ferrania	S04804	2	44.365136	8.328885
Ferrara	S05712	8	44.843047	11.603594
Ferrera Lomellina	S00404	1	45.111807	8.862805
Ferruzzano	S11856	17	38.016304	16.134486
Fi Rovezzano	S06901	13	43.768657	11.307372
Fidene	S08235	5	41.979773	12.508451
Fidenza	S05009	8	44.86773	10.06339
Fiera	S12137	14	38.144004	13.351336
Fiesole Caldine	S06953	13	43.833697	11.266047
Figline Valdarno	S06908	13	43.621596	11.473652
Filattiera	S06165	13	44.33137	9.933352
Fildidonna	S12277	14	37.310867	14.808848
Filiano	S11211	15	40.837161	15.752285
Finale Ligure Marina	S04522	2	44.169116	8.34033
Fiorenzuola	S05007	8	44.928716	9.917403
Firenze Campo Marte	S06900	13	43.776856	11.27702
Firenze Castello	S06419	13	43.819444	11.21838
Firenze Rifredi	S06420	13	43.800873	11.235729
Firenze Statuto	S06430	13	43.787273	11.249738
Fisciano	S09519	18	40.759095	14.77486
Fiumefreddo Bruzio	S11741	17	39.246369	16.059012
Fiumefreddo Di Sicilia	S12322	14	37.795247	15.205615
Fiumelatte	S01412	1	45.999017	9.292857
Fiumetorto	S12015	14	37.966939	13.774781
Fiumicino Aeroporto	S08411	5	41.793673	12.251728
Fivizzano - Gassano	S06223	13	44.202672	10.091691
Fivizzano Rometta - Soliera	S06222	13	44.201526	10.05953
Foggia	S11100	16	41.466	15.555816
Foligno	S07217	6	42.954261	12.711096
Follonica	S06033	13	42.926687	10.755775
Fondi - Sperlonga	S08606	5	41.337663	13.424893
Fontanafredda	S02702	10	45.967555	12.575266
Fontanetto Po	S00174	3	45.191238	8.188697
Fontaniva	S02534	12	45.634723	11.749038
Fontebuona	S06619	13	43.91751	11.265553
Fontecchio	S07421	19	42.222822	13.604445
Forenza	S11210	15	40.866839	15.725331
Forgaria Bagni Anduins	S03054	10	46.203472	12.964109
Forlimpopoli	S05065	8	44.194165	12.128125
Forli`	S05059	8	44.22413	12.054871
Formia-Gaeta	S08640	5	41.258773	13.605996
Fornaci Di Barga	S06304	13	44.045253	10.473173
Fornovo	S06153	8	44.693791	10.102014
Forte Dei Marmi Serravezza Q.	S06011	13	43.97777	10.19936
Fortezza 	S02011	22	46.788841	11.609922
Fosciandora - Ceserana	S06301	13	44.118559	10.444212
Fossacesia	S07819	19	42.235097	14.524255
Fossacesia - Torino Di Sangro	S07018	19	42.237648	14.525456
Fossalta Di Piave	S02667	12	45.624215	12.500393
Fossalta Di Portogruaro	S03201	12	45.78324	12.907473
Fossano	S00606	3	44.550231	7.717971
Fossato Di Vico Gubbio	S07209	6	43.283798	12.757258
Fragneto Monforte	S09506	18	41.247292	14.76486
Framura	S04729	2	44.201903	9.555169
Francavilla	S12361	14	37.899892	15.132812
Francavilla Al Mare	S07813	19	42.421316	14.288062
Francavilla Angitola F.	S11752	17	38.778074	16.215215
Francavilla Fontana	S11603	16	40.523145	17.584714
Francia	S12139	14	38.155233	13.321938
Frascati	S08751	5	41.806881	12.677962
Frasso T. Dugenta	S09305	18	41.137244	14.459459
Fratta	S02374	12	45.038673	11.642598
Frattamaggiore	S09008	18	40.940018	14.263676
Frattarolo	S11053	16	41.58364	15.861727
Fratte	S09522	18	40.705637	14.778362
Fratte Centro	S02524	12	45.585849	11.906637
Fratte Villa Comunale	S09524	18	40.697895	14.779252
Frosinone	S08662	5	41.625333	13.328728
Frugarolo Boscomarengo	S04200	3	44.841687	8.682724
Funo Centergross	S05726	8	44.593646	11.370672
Furci	S12313	14	37.961714	15.380022
Fuscaldo	S11738	17	39.409692	16.011475
Genova P.Principe	S04700	2	44.417784	8.9207
Gabella Grande	S11871	17	39.146447	17.10991
Gaggi	S12358	14	37.858532	15.225095
Gaggiano	S01063	1	45.408827	9.031117
Gaggio	S02671	12	45.551893	12.326027
Gagliole	S07311	11	43.220298	13.07522
Gaibanella	S05800	8	44.778116	11.671325
Gaifana	S07212	6	43.181837	12.784148
Galati	S12305	14	38.104511	15.505313
Galdo	S09900	18	40.569272	15.355627
Gallarate	S01030	1	45.659828	8.798243
Gallese Bassanello	S08113	5	42.3798	12.371998
Gallese In Teverina	S08210	5	42.380901	12.439732
Galliera	S05721	8	44.737738	11.441551
Galliera Veneta Tombolo	S02541	12	45.652901	11.828066
Gamalero	S00861	3	44.817476	8.543427
Gambettola	S05067	8	44.116718	12.327555
Gambolo`Remondo`	S00274	1	45.23587	8.79757
Garbagna	S00030	3	45.385552	8.66627
Garessio	S00924	3	44.199088	8.015214
Garlasco	S00276	1	45.198948	8.926829
Gatteo A Mare	S05816	8	44.170691	12.432057
Gattinara	S00052	3	45.611523	8.364288
Gavorrano	S06036	13	42.947959	10.9338
Gazzada Schianno Morazzone	S01207	1	45.77862	8.824815
Gazzo Di Bigarello	S02381	1	45.176648	10.894005
Gazzo Pieve S. Giacomo	S01917	1	45.137151	10.189922
Gela	S12407	14	37.07283	14.259461
Gemelli	S08326	5	41.927813	12.427797
Gemona Del Friuli	S03019	10	46.274243	13.127978
Genga S.Vittore Terme	S07206	11	43.403011	12.977163
Genova Acquasanta	S04107	2	44.458757	8.773197
Genova Bolzaneto	S04218	2	44.459208	8.900193
Genova Borzoli	S04109	2	44.434704	8.866648
Genova Brignole	S04702	2	44.407213	8.947553
Genova Cornigliano	S04538	2	44.414752	8.865035
Genova Costa Di Sestri Ponente	S04110	2	44.433535	8.84553
Genova Granara	S04108	2	44.442055	8.823453
Genova Marittima S. Limbania	S04603	2	44.412808	8.911098
Genova Nervi	S04707	2	44.381271	9.039895
Genova P. Principe Sotterranea	S04701	2	44.414803	8.918041
Genova Pegli	S04536	2	44.426236	8.816767
Genova Pontedecimo	S04217	2	44.494189	8.905642
Genova Pra	S04535	2	44.426874	8.785356
Genova Quarto Dei Mille	S04704	2	44.388607	8.99597
Genova Quinto Al Mare	S04705	2	44.385184	9.020514
Genova Rivarolo	S04219	2	44.435955	8.89106
Genova S.Biagio	S04222	2	44.484399	8.900854
Genova Sampierdarena	S04220	2	44.413102	8.887271
Genova Sestri Ponente	S04537	2	44.422374	8.847707
Genova Sturla	S04703	2	44.397977	8.981466
Genova Vesima	S04540	2	44.416176	8.714099
Genova Via Di Francia	S04223	2	44.411126	8.90192
Genova Voltri	S04534	2	44.428467	8.758163
Ghedi	S01841	1	45.409439	10.280506
Ghemme	S00110	3	45.595882	8.417135
Ghislarengo	S00974	3	45.526006	8.379453
Ghivizzano - Coreglia	S06306	13	44.027583	10.510183
Giachery	S12138	14	38.138135	13.355856
Giampilieri	S12308	14	38.080121	15.493863
Giarole	S00316	3	45.056125	8.5609
Giarre Riposto	S12324	14	37.730346	15.193386
Giave	S12866	20	40.455875	8.729388
Ginosa	S11462	16	40.429201	16.890968
Gioia Del Colle	S11505	16	40.796983	16.916569
Gioia Tauro	S11766	17	38.423436	15.897516
Gioiosa Jonica	S11848	17	38.300812	16.332501
Giojosa Marea	S12033	14	38.175149	14.894794
Giovinazzo	S11115	16	41.180968	16.669346
Giugliano Qualiano	S09100	18	40.935018	14.10378
Giulianova	S07802	19	42.751673	13.965743
Giuncano	S07225	6	42.647802	12.637694
Giuncarico	S06037	13	42.915473	11.008362
Gizzeria Lido	S11748	17	38.933446	16.212563
Glorie	S05809	8	44.483341	12.075736
Godo	S05904	8	44.389322	12.071256
Gole Di Alcantara	S12366	14	37.878403	15.176039
Golfo Aranci	S12852	20	40.997261	9.62471
Gonzaga-Reggiolo	S02344	1	44.939239	10.815533
Gorgo Al Monticano	S02766	12	45.784444	12.553737
Goriano Sicoli	S08535	19	42.082698	13.78286
Gorizia Centrale	S03304	10	45.933047	13.60684
Gozzano	S00015	3	45.741039	8.438726
Gragnano	S09758	18	40.688964	14.520445
Gragnola	S06224	13	44.191069	10.109245
Grammichele	S12272	14	37.209336	14.641256
Granaiolo	S06801	13	43.652244	10.945223
Granarolo	S05955	8	44.357356	11.937441
Graniti	S12359	14	37.869467	15.208633
Grassano	S11456	15	40.593317	16.241049
Gravellona Toce	S00007	3	45.934051	8.428346
Gravina In Puglia	S11306	16	40.825216	16.418926
Greccio	S07403	5	42.462872	12.777009
Gricignano	S09300	18	40.998742	14.241657
Grignano	S03315	10	45.713308	13.710255
Grignasco	S00106	3	45.683288	8.332913
Grigno	S02317	9	46.015059	11.624984
Grisignano Di Zocco	S02579	12	45.48638	11.710762
Grisolia S.Maria	S11729	17	39.739731	15.821072
Grizzana	S05133	8	44.258292	11.181194
Gropello Cairoli	S00277	1	45.173101	8.991626
Grosseto	S06039	13	42.76728	11.1065
Grottaglie	S11602	16	40.528989	17.424503
Grottammare	S07512	11	42.99381	13.870265
Grotte	S12372	14	37.409848	13.702717
Grotte S.Stefano	S08301	5	42.51512	12.169372
Grumello Del Monte	S01537	1	45.634102	9.862767
Grumo Appula	S11502	16	41.01199	16.718777
Gualdo Tadino	S07211	6	43.233475	12.7672
Guardavalle	S11843	17	38.480266	16.578923
Guardia Mangano Santa Venerina	S12327	14	37.661812	15.169447
Guardia Piemontese Terme	S11737	17	39.464259	15.979237
Guardiaregia	S09456	7	41.457455	14.553753
Guidonia-Montecello-S.Angelo	S08506	5	41.993405	12.725681
Hone Bard	S00147	4	45.613918	7.741345
Igea Marina	S05818	8	44.131972	12.481636
Iglesias	S12950	20	39.310563	8.539786
Il Cionfo Bin. Le Cure	S06957	13	43.786182	11.268501
Il Cionfo Bin. Salviati	S06951	13	43.798687	11.273076
Il Neto	S06424	13	43.839624	11.182656
Imola	S05054	8	44.359418	11.718723
Imperia Oneglia	S04510	2	43.892321	8.039145
Incisa	S06907	13	43.656541	11.452728
Incisa Scapaccino	S00835	3	44.80052	8.388468
Incoronata	S11101	16	41.408174	15.650728
Indicatore	S06914	13	43.480067	11.803468
Induno Olona	S01204	1	45.846432	8.838357
Ipogeo Degli Ottavi	S08330	5	41.968391	12.409026
Isernia	S09053	7	41.596946	14.235421
Isola Capo Rizzuto	S11825	17	39.043084	17.071764
Isola Del Cantone	S04210	2	44.646589	8.957578
Isola Della Scala	S05307	12	45.269474	11.013312
Isola Delle Femmine	S12129	14	38.194784	13.250188
Isola D`Asti	S00347	3	44.830605	8.175113
Isola Liri	S08858	5	41.681712	13.581088
Isoletta-S.Giovanni I.	S08665	5	41.527873	13.547095
Ispica	S12421	14	36.77804	14.914315
Ispra	S01121	1	45.811573	8.621338
Istrana	S02539	12	45.676539	12.102781
Itri	S08607	5	41.271328	13.545549
Ivrea	S00154	3	45.461542	7.876348
Jesi	S07202	11	43.520164	13.251316
Joppolo	S11763	17	38.580318	15.897025
La Fiora	S08808	5	41.331487	13.200365
La Giustiniana	S08321	5	41.985243	12.403457
La Salle	S00132	4	45.744637	7.061987
La Spezia Centrale	S06000	2	44.11141	9.813906
La Spezia Migliarina	S06004	2	44.123391	9.84028
La Storta	S08320	5	42.001748	12.381254
Labro Moggio	S07427	5	42.506131	12.746224
Laces	S02207	9	46.619692	10.85863
Ladispoli-Cerveteri	S08021	5	41.953502	12.081675
Lagonegro	S09911	15	40.120325	15.7627
Laigueglia	S04514	2	43.981283	8.158685
Laives 	S02029	9	46.43409	11.323533
Lama	S05418	12	45.043466	11.913123
Lama Di Reno	S05121	8	44.363501	11.216168
Lambrinia	S01869	1	45.164376	9.527436
Lamezia Terme Centrale	S11749	17	38.921347	16.255577
Lamezia Terme Nicastro	S11951	17	38.966779	16.320043
Lamezia Terme Sambiase	S11950	17	38.959927	16.284962
Lana-Postal 	S02219	9	46.608079	11.182252
Lancenigo	S02710	12	45.710087	12.265663
Lanuvio	S08733	5	41.672211	12.690885
Lanzara Fimiani	S09707	18	40.769685	14.68115
Larino	S09466	7	41.80015	14.918226
Lasa	S02204	9	46.618617	10.694828
Lascari	S12018	14	38.011672	13.928633
Laterina	S06912	13	43.496458	11.660573
Latiano	S11606	16	40.558074	17.717629
Latina	S08608	5	41.538372	12.945888
Latisana Lignano B.	S03202	10	45.777733	13.001101
Lauriano	S00421	3	45.160761	7.998531
Lavagna	S04723	2	44.305677	9.346371
Laveno Mombello	S01118	1	45.903272	8.624583
Lavezzola	S05806	8	44.559591	11.880154
Lavino	S05041	8	44.538306	11.232799
Lavis	S02037	9	46.148306	11.095993
Lavorate	S09708	18	40.78733	14.649875
Le Piagge	S06516	13	43.789684	11.171665
Lecce	S11145	16	40.34566	18.165724
Lecco	S01520	1	45.856471	9.393638
Lecco Maggianico	S01522	1	45.831179	9.411691
Leggiuno Monvalle	S01120	1	45.867349	8.629476
Legnago	S02366	12	45.189034	11.304724
Legnano	S01033	1	45.593653	8.910638
Lendinara	S02373	12	45.081816	11.591667
Lentini	S12341	14	37.300916	14.99758
Lentini Diramazione	S12340	14	37.340009	14.98141
Leonessa	S11219	15	41.062304	15.595094
Leonforte-Pirato	S12239	14	37.606305	14.376063
Lercara Bassa	S12205	14	37.737639	13.633053
Lerino	S02578	12	45.518725	11.63567
Lesa	S01018	3	45.833042	8.566471
Lesegno	S00954	3	44.385891	7.94266
Lesmo	S01501	1	45.644745	9.309318
Letojanni	S12316	14	37.877581	15.303128
Levada	S02568	12	45.850158	12.006657
Levanto	S04731	2	44.174167	9.616018
Levico	S02309	9	46.005729	11.30493
Licata	S12400	14	37.106024	13.938114
Lido Di Classe-Lido Di Savio	S05813	8	44.314546	12.292722
Lido Di Lavinio	S08708	5	41.500599	12.625926
Lierna	S01413	1	45.960973	9.303071
Limone	S00617	3	44.203799	7.577912
Lioni	S09616	18	40.874869	15.186324
Lioni Valle Delle Viti	S09628	18	40.887025	15.215936
Lisiera	S02530	12	45.578581	11.610695
Lison	S02663	12	45.751947	12.759416
Lissone-Muggio`	S01321	1	45.60592	9.235368
Livorno Centrale	S06725	13	43.55406	10.336593
Livorno Ferraris	S00237	3	45.283402	8.073493
Loano	S04519	2	44.122429	8.254523
Locate Triulzi	S01801	1	45.35973	9.221398
Locri	S11851	17	38.233154	16.264787
Lodi	S01825	1	45.308966	9.497585
Lomello	S00405	1	45.117276	8.799121
Lonato	S02083	1	45.457204	10.486714
Longarone Zoldo	S02556	12	46.267466	12.301953
Longobardi	S11742	17	39.211493	16.061261
Lonigo	S02441	12	45.413269	11.345016
Loreo	S05423	12	45.059476	12.191569
Loreto	S07503	11	43.448376	13.620455
Lucca	S06404	13	43.837186	10.506069
Lugo	S05951	8	44.414106	11.914723
Luino	S01113	1	45.996643	8.737464
Lumignacco	S03125	10	45.999177	13.250841
Lungavilla	S01806	1	45.049837	9.068968
Lunghezza	S08503	5	41.923253	12.667212
Luogosano	S09606	18	40.980381	14.994305
Luserna S. Giovanni	S00523	3	44.815842	7.246902
L`Aquila	S07414	19	42.351055	13.384959
Milano Centrale	S01700	1	45.486347	9.204528
Maccarese	S08020	5	41.879372	12.23695
Macerata	S07307	11	43.293094	13.455172
Macerata Fontescodella	S07313	11	43.291569	13.44048
Macherio Sovico	S01500	1	45.642485	9.266895
Macherio-Canonica	S01484	1	45.645533	9.286736
Macomer	S12869	20	40.267899	8.772279
Maddalene	S00607	3	44.518734	7.648022
Maddaloni Inferiore	S09212	18	41.035954	14.380504
Maddaloni Superiore	S09303	18	41.048567	14.396055
Madignano	S01610	1	45.34383	9.730179
Madonna Del Piano	S08108	5	42.259963	12.166357
Madonna Del Pilone	S00820	3	44.695347	7.747639
Madonna Della Scala	S00501	3	44.993686	7.780994
Madonna Di Castro	S12853	20	40.672018	9.046014
Maerne Di Martellago	S02512	12	45.514799	12.150629
Magenta	S01040	1	45.468204	8.880633
Magione	S07002	6	43.137356	12.202238
Magliana	S08404	5	41.834235	12.431017
Magliano Crava Morozzo	S00951	3	44.445259	7.777852
Magre`- Cortaccia	S02033	9	46.287976	11.232646
Majano	S03051	10	46.219372	13.066308
Maleo	S01910	1	45.170118	9.755201
Malles Venosta	S02200	9	46.684542	10.546445
Maltignano Del Tronto	S07555	11	42.844918	13.664738
Manarola	S04735	2	44.109904	9.727401
Mandatoriccio Campana	S11817	17	39.525442	16.893125
Mandela-Sambuci	S08512	5	42.016212	12.921976
Mandello Del Lario	S01415	1	45.915208	9.322061
Manerbio	S01902	1	45.357212	10.132348
Manfredonia	S11054	16	41.623046	15.908142
Maniago	S03084	10	46.170057	12.714527
Manoppello	S07710	19	42.305848	14.061057
Manta	S00700	3	44.620887	7.494166
Mantova	S02336	1	45.158746	10.783165
Mantova Frassine	S02380	1	45.150491	10.831007
Manzano	S03030	10	45.98811	13.375016
Manziana-Canale Monterano	S08314	5	42.128246	12.134934
Marano	S02142	12	45.706864	11.4246
Marano Ticino	S00983	3	45.629485	8.626172
Maratea	S11723	15	39.995028	15.70975
Marausa	S12104	14	37.92647	12.504113
Marcaria	S01921	1	45.124518	10.533651
Marcellina Verbicaro Orsomarso	S11728	17	39.766974	15.822665
Marcellina-Palombara	S08507	5	41.999609	12.79134
Marcellinara	S11953	17	38.923103	16.466939
Marcianise	S09301	18	41.03596	14.287658
Marconia	S11800	15	40.316896	16.752317
Marechiaro	S08716	5	41.470762	12.6123
Margarita	S00902	3	44.380082	7.685738
Margherita Di Sav./Ofantino	S11107	16	41.343	16.136024
Mariano Comense	S01089	1	45.693622	9.18147
Marianopoli	S12234	14	37.623011	13.898901
Marigliano	S09750	18	40.923733	14.460435
Marina Di Cerveteri	S08022	5	41.979133	12.047924
Marina Di Maratea	S11724	15	39.959512	15.735953
Marina Di San Lorenzo	S11862	17	37.919844	15.826365
Marinella	S12854	20	40.999129	9.55362
Marino	S08701	5	41.768961	12.655994
Marino Del Tronto Folignano	S07556	11	42.844346	13.632995
Marlengo	S02214	9	46.664558	11.138577
Marmore	S07401	6	42.547499	12.715224
Marotta Mondolfo	S07107	11	43.769748	13.137273
Marradi	S06610	13	44.07973	11.619174
Marrubiu Terralba Arborea	S12879	20	39.75293	8.641144
Marsala	S12107	14	37.793514	12.443174
Marzabotto	S05105	8	44.341237	11.207351
Marzamemi	S12444	14	36.7309	15.111238
Marzocca	S07109	11	43.677362	13.287922
Mascali	S12323	14	37.765403	15.1942
Maschio	S04811	2	44.326605	8.436686
Massa Centro	S06009	13	44.023741	10.136041
Massafra	S11510	16	40.582968	17.107899
Massalombarda	S05952	8	44.448948	11.828068
Massarosa Bozzano	S06350	13	43.855652	10.352022
Matelica	S07301	11	43.25394	13.01509
Matrice Montagano	S09461	7	41.621321	14.699561
Mazara Del Vallo	S12110	14	37.652448	12.594565
Mede	S00406	1	45.095009	8.742594
Medesano	S06102	8	44.749265	10.140335
Meduno	S03082	10	46.200678	12.80282
Meina	S01019	3	45.794389	8.535452
Melano Marischio	S07065	11	43.345046	12.858866
Mele	S04106	2	44.472797	8.733953
Melegnano	S01822	1	45.356321	9.319271
Melfi	S11206	15	40.989871	15.646895
Melito Di Porto Salvo	S11863	17	37.916732	15.780816
Melzo	S01705	1	45.502191	9.420653
Meolo	S02668	12	45.61319	12.453969
Merana	S00875	3	44.519368	8.298327
Merano	S02216	22	46.673066	11.148978
Merano Maia Bassa	S02217	9	46.656202	11.147931
Mercato San Severino	S09706	18	40.783095	14.759749
Mercenasco	S00156	3	45.353436	7.886405
Mergozzo	S01012	3	45.961303	8.440881
Merone	S01454	1	45.781374	9.243772
Mesagne	S11607	16	40.563203	17.802082
Messina Centrale	S12301	14	38.184975	15.561278
Messina Marittima	S12300	14	38.14988	15.534997
Mestrino	S02580	12	45.457878	11.773859
Metaponto	S11461	15	40.368496	16.815176
Mezzani Rondani	S01851	8	44.966764	10.398818
Mezzano	S05810	8	44.463	12.098501
Mezzocorona	S02035	9	46.207258	11.128595
Mi P.Gar.Sott.	S01647	1	45.484228	9.185122
Mi.P.Genova	S01631	1	45.453379	9.169303
Mignanego	S04212	2	44.539031	8.929951
Mignano Di Monte Lungo	S09201	18	41.407585	13.986672
Milano Bovisa Fnm	S01642	1	45.502993	9.159235
Milano Certosa	S01640	1	45.507019	9.133863
Milano Dateo	S01650	1	45.462341	9.209277
Milano Greco Pirelli	S01326	1	45.51272	9.214456
Milano Lambrate	S01701	1	45.484933	9.237333
Milano Lancetti	S01643	1	45.492632	9.175832
Milano Porta Garibaldi	S01645	1	45.484917	9.187683
Milano Porta Romana	S01632	1	45.445844	9.213128
Milano Porta Vittoria	S01633	1	45.459579	9.21813
Milano Rogoredo	S01820	1	45.433866	9.2391
Milano Romolo	S01032	1	45.445008	9.168933
Milano S. Cristoforo	S01630	1	45.442404	9.130258
Milano Venezia	S01649	1	45.471121	9.201889
Milazzo	S12042	14	38.21195	15.244203
Mileto	S11790	17	38.577082	16.060041
Militello	S12276	14	37.277194	14.78317
Mimmole	S06954	13	43.858111	11.265292
Mineo	S12275	14	37.24572	14.756907
Minervino Murge	S11403	16	41.081788	16.074974
Minturno	S09150	5	41.257621	13.720664
Minucciano - Pieve - Casola	S06227	13	44.194385	10.193837
Mira Mirano	S02588	12	45.462943	12.118789
Miradolo Terme	S01867	1	45.162007	9.449952
Mirandola	S05311	8	44.891638	11.111689
Mirto Crosia	S11814	17	39.604876	16.777366
Misano Adriatico	S07119	8	43.977493	12.697121
Modena	S05032	8	44.654461	10.930373
Modica	S12417	14	36.8529	14.754255
Modugno Citta`	S11515	16	41.086437	16.779596
Mogliano Veneto	S02717	12	45.561964	12.23274
Moiana	S01456	1	45.787082	9.255607
Mojo-Alcantara Malvagna	S12363	14	37.896949	15.050228
Mola Di Bari	S11127	16	41.057227	17.080919
Molare	S04102	3	44.621975	8.609904
Molfetta	S11114	16	41.196008	16.596793
Molina Castel Vecchio Subaqueo	S07424	19	42.143476	13.739644
Molino Del Pallone	S05112	8	44.100128	10.961252
Molteno	S01458	1	45.780939	9.301683
Mombaldone Roccaverano	S00873	3	44.569891	8.332781
Mombaruzzo	S00808	3	44.76235	8.441006
Momo	S00019	3	45.574646	8.55689
Monasterace Stilo	S11844	17	38.437591	16.574444
Monastero Pratavecchi	S00721	3	44.484517	7.44679
Moncalieri	S00453	3	44.998187	7.678027
Moncalieri Sangone	S00510	3	45.000393	7.667991
Moncalvo	S00340	3	45.059463	8.261905
Monchiero Dogliani	S00735	3	44.571815	7.917635
Mondovi`	S00952	3	44.398255	7.816339
Moneglia	S04727	2	44.242449	9.486957
Monfalcone	S03310	10	45.807683	13.542929
Mongardino	S00801	3	44.84161	8.207411
Mongrassano Cervicati	S11905	17	39.538462	16.222511
Monguelfo Valle Di Casies	S02111	9	46.752775	12.107264
Monopoli	S11129	16	40.952017	17.292455
Monsampolo Del Tronto	S07553	11	42.881488	13.803569
Monselice	S05703	12	45.246116	11.74789
Montagnana	S02392	12	45.228238	11.459873
Montaguto Panni	S09319	18	41.235362	15.235132
Montale Agliana	S06415	13	43.912924	11.008309
Montallese	S06856	13	43.064888	11.90928
Montalto Di Castro	S08008	5	42.334623	11.595085
Montalto Dora	S00153	3	45.490309	7.858986
Montalto Rose	S11908	17	39.407213	16.247291
Montanaro	S00160	3	45.232674	7.858331
Monte Antico	S06820	13	42.981054	11.359819
Monte Arcau	S12973	20	39.244501	8.543347
Monte Giordano	S11805	17	40.040812	16.597907
Monte Melino	S07014	6	43.106303	12.249698
Monte S.Biagio	S08605	5	41.345967	13.347037
Montebello	S02443	12	45.45251	11.390803
Montebelluna	S02570	12	45.776434	12.054
Montecalvo Buonalbergo Casalb.	S09315	18	41.2211	14.9795
Montecarlo San Salvatore	S06408	13	43.850798	10.68537
Montecarotto Castelbellino	S07203	11	43.500005	13.1481
Montecatini Centro	S06412	13	43.881216	10.77081
Montecatini Terme	S06411	13	43.879327	10.780588
Montechiaro Denice	S00872	3	44.600827	8.352185
Montechiaro D`Asti	S00428	3	44.999849	8.10982
Montecorvino	S09822	18	40.617439	14.944628
Montecosaro	S07310	11	43.289297	13.646378
Montefalcione	S09602	18	40.951114	14.886432
Montefiascone	S08303	5	42.520268	12.050448
Montefredane	S09529	18	40.951143	14.827771
Montegrosso	S00803	3	44.818465	8.239171
Monteiasi	S11601	16	40.523852	17.361457
Montella	S09612	18	40.845175	15.032758
Montello Gorlago	S01535	1	45.67017	9.808488
Montelupo Capraia	S06511	13	43.733357	11.018997
Montemaggiore	S12203	14	37.859037	13.693193
Montemarano	S09610	18	40.900728	15.039506
Montemarciano	S07110	11	43.651397	13.346478
Montemiletto	S09603	18	40.993606	14.920685
Montenero Petacciato	S07825	7	42.033286	14.851015
Montepaone - Montauro	S11836	17	38.728548	16.541944
Montepescali	S06038	13	42.869518	11.068743
Monteprandone	S07554	11	42.894183	13.849996
Montepulciano	S06855	13	43.135353	11.856865
Montereale Valcellina	S03085	10	46.148009	12.658923
Monteroduni	S09057	7	41.528345	14.156514
Monteroni D`Arbia	S06871	13	43.230036	11.419662
Monterosso	S04732	2	44.145967	9.649009
Monterosso Marche	S07062	11	43.462227	12.818339
Monterotondo	S08215	5	42.06409	12.595753
Montesano Buonabitacolo	S09909	18	40.286725	15.653794
Montesanto	S05801	8	44.732964	11.73652
Montesilvano	S07808	19	42.515766	14.152567
Monteu Da Po	S00422	3	45.158353	8.022925
Montevarchi Terranuova	S06910	13	43.525165	11.563983
Monteverde	S09624	15	40.967691	15.568502
Monti Telti	S12857	20	40.829632	9.322814
Monticchio	S09622	15	40.923923	15.539231
Monticelli D`Ongina	S01971	8	45.075666	9.949036
Monticello D`Alba	S00823	3	44.703736	7.965002
Montiglio Murisengo	S00426	3	45.067664	8.106913
Montirone	S01840	1	45.451352	10.239482
Montjovet	S00144	4	45.704586	7.666871
Montoro Forino	S09518	18	40.819987	14.757381
Montoro Superiore	S09517	18	40.831616	14.80217
Montorsi	S09528	18	41.080487	14.786519
Montorsoli	S06601	13	43.881903	11.265484
Monza	S01322	1	45.577789	9.273253
Monza Sobborghi	S01480	1	45.582082	9.284375
Monzone-M.Dei Banchi-Isolano	S06225	13	44.165637	10.123827
Monzuno	S05132	8	44.322277	11.262082
Morano Sul Po	S00177	3	45.170793	8.366168
Morbegno	S01425	1	46.136663	9.568646
Morcone	S09503	18	41.340445	14.677658
Morengo Bariano	S01710	1	45.521639	9.703114
Mores Ittireddu	S12864	20	40.555954	8.875838
Moretta	S00544	3	44.765514	7.530303
Morgex	S00131	4	45.757055	7.033898
Mori	S02046	9	45.861216	11.002648
Mornago Cimbro	S01144	1	45.729742	8.734193
Morolo	S08660	5	41.667018	13.194557
Morra De Sanctis Teora	S09617	18	40.890563	15.239328
Morrovalle Monte S.Giusto	S07309	11	43.279189	13.58285
Mortara	S00034	1	45.252171	8.731639
Mosciano S. Angelo	S07904	19	42.710309	13.908563
Mossa	S03302	10	45.935114	13.547281
Motta Camastra	S12360	14	37.890651	15.163764
Motta Di Livenza	S02767	12	45.779114	12.607118
Motta S. Damiano	S01862	1	45.178344	9.219866
Motta San Giovanni Lazzaro	S11865	17	37.976978	15.659977
Motteggiana	S02339	1	45.029685	10.755439
Mozia-Birgi	S12105	14	37.884956	12.499016
Mozzecane	S02332	12	45.306687	10.823657
Mulinetti	S04713	2	44.362614	9.129499
Muratella	S08400	5	41.826182	12.412696
Murlo	S06876	13	43.11398	11.400394
Musei	S12953	20	39.28837	8.676528
Musiano-Pian Di Macina	S05139	8	44.402423	11.344912
Mussotto	S00824	3	44.713227	8.015194
Muzzana Del Turgnano	S03204	10	45.816817	13.132376
Napoli Centrale	S09218	18	40.852933	14.272908
Napoli Campi Flegrei	S09103	18	40.822462	14.194649
Napoli Gianturco	S09110	18	40.853959	14.288213
Napoli Mergellina	S09105	18	40.831531	14.218662
Napoli Montesanto	S09107	18	40.847807	14.244022
Napoli Piazza Garibaldi	S09109	18	40.852326	14.275159
Napoli Piazza Leopardi	S09104	18	40.82397	14.199117
Napoli S.Giov.Barra	S09800	18	40.831269	14.307811
Narni Amelia	S07230	6	42.53128	12.519592
Narzole	S00734	3	44.598377	7.881597
Nasisi	S11600	16	40.50791	17.257802
Naturno	S02211	9	46.645095	11.004303
Navacchio	S06502	13	43.685941	10.486806
Neive	S00827	3	44.723048	8.121071
Nera Montoro	S07229	6	42.497855	12.476587
Nettuno	S08710	5	41.459558	12.662123
Nibbia	S00976	3	45.481363	8.557993
Nichelino	S00511	3	44.99132	7.642068
Nicorvo	S00273	1	45.275462	8.6712
Nicotera	S11764	17	38.549328	15.933749
Niella	S00739	3	44.415377	7.926365
Niscemi	S12392	14	37.145	14.403471
Nizza Di Sicilia	S12311	14	37.996937	15.412334
Nizza Monferrato	S00834	3	44.772905	8.361146
Noale Scorze`	S02510	12	45.553833	12.074888
Nocera Inferiore	S09814	18	40.745318	14.635346
Nocera Inferiore Mercato	S09709	18	40.745668	14.649129
Nocera Superiore	S09815	18	40.742597	14.672398
Nocera Tirinese	S11746	17	39.015913	16.119677
Nocera Umbra	S07213	6	43.100663	12.767207
Noceto	S06101	8	44.809934	10.147258
Nogara	S05310	12	45.179937	11.070572
Nola	S09700	18	40.923652	14.525004
None	S00513	3	44.938011	7.540068
Notaresco	S07903	19	42.706502	13.876365
Noto	S12424	14	36.88247	15.074523
Nova Siri Rotondella	S11803	15	40.130311	16.644044
Novara	S00248	3	45.451376	8.624895
Novara Montalbano Furnari	S12039	14	38.121516	15.130702
Novate-Mezzola	S01403	1	46.216595	9.446573
Nove	S02734	12	46.050895	12.313312
Novi Ligure	S04203	3	44.762521	8.787289
Nozzano	S06351	13	43.829956	10.40716
Nucetto	S00920	3	44.338871	8.061386
Nuovo Salario	S08231	5	41.956195	12.510317
Nus	S00140	4	45.738786	7.4712
Nusco	S09614	18	40.872272	15.095642
Occhiobello	S05710	12	44.899384	11.621197
Oderzo	S02765	12	45.775304	12.49293
Offida Castel Di Lama	S07551	11	42.862074	13.720285
Oggiono	S01460	1	45.788993	9.33748
Olbia	S12855	20	40.924595	9.498293
Olbia Marittima Isola Bianca	S12901	20	40.922597	9.523706
Olcenengo	S00244	3	45.34147	8.310096
Olcio	S01414	1	45.938011	9.313898
Oleggio	S00984	3	45.598029	8.632586
Olevano	S00036	1	45.212119	8.71182
Olgiata	S08333	5	42.01538	12.363864
Olgiate-Calco-Brivio	S01514	1	45.729166	9.40377
Oliveri Tindari	S12037	14	38.128346	15.056573
Olivetta San Michele	S04480	2	43.878345	7.535066
Olmeneta	S01905	1	45.231099	10.03194
Olmi Spercenigo	S02760	12	45.679467	12.338101
Omegna	S00010	3	45.87179	8.413291
Omegna Crusinallo	S00008	3	45.898138	8.413929
Omignano Salento	S11708	18	40.252688	15.134406
Ora	S02031	9	46.36092	11.296781
Orbetello	S08004	13	42.450615	11.248972
Orciano	S06022	13	43.500263	10.477566
Ordona	S11202	16	41.315006	15.620567
Oria	S11605	16	40.508167	17.646534
Oricola-Pereto	S08518	19	42.067835	13.044214
Orio Litta	S01870	1	45.166778	9.550592
Oriolo	S08313	5	42.166825	12.138499
Oris	S02203	9	46.626672	10.645989
Oristano	S12878	20	39.902033	8.603974
Ornavasso	S00006	3	45.970296	8.415892
Orsa	S12121	14	38.190454	13.119126
Orsago	S02704	12	45.928068	12.434259
Orsara Di Puglia	S09320	16	41.241899	15.27766
Orta Miasino	S00012	3	45.795865	8.421217
Ortanova	S11102	16	41.350441	15.732059
Orte	S08209	5	42.43728	12.408986
Ortona	S07815	19	42.354196	14.407698
Orvieto	S08203	6	42.723379	12.127412
Oschiri	S12860	20	40.713273	9.107749
Osimo Castelfidardo	S07502	11	43.497033	13.547263
Osnago	S01512	1	45.678532	9.386995
Ospedaletto Euganeo	S02395	12	45.221706	11.606553
Ospedaletto Lodigiano	S01871	1	45.16933	9.575164
Ospedalicchio	S07012	6	43.082369	12.506572
Ospitale Di Cadore	S02554	12	46.325771	12.318429
Ospitaletto Mantovano	S01922	1	45.129748	10.604406
Ospitaletto Travagliato	S01716	1	45.546042	10.074363
Osteria Nuova	S05302	8	44.586613	11.236525
Ostia Parmense	S06160	8	44.520136	9.844981
Ostiglia	S05304	1	45.072228	11.141059
Ostuni	S11132	16	40.752356	17.580809
Ottaviano	S09751	18	40.85256	14.493479
Oulx Cesana Claviere Sestriere	S00204	3	45.038789	6.831432
Ovada	S04103	3	44.630377	8.632301
Ovada Nord	S04007	3	44.646656	8.644633
Oviglio	S00840	3	44.859537	8.494998
Ozieri Chilivani	S12862	20	40.609496	8.933744
Ozieri Fraigas	S12861	20	40.627334	8.986497
Ozzano Dell'Emilia	S05055	8	44.450797	11.487297
Ozzano Monferrato	S00337	3	45.107581	8.372296
Ozzano Taro	S06152	8	44.712268	10.141022
Palermo Centrale	S12002	14	38.109187	13.367515
P.C.Canaro	S05709	12	44.923012	11.675223
P.M. Badesse	S06826	13	43.382144	11.277136
P.M.Vat	S03032	10	46.092872	13.247412
Pabillonis	S12881	20	39.610878	8.741013
Pace Del Mela	S12045	14	38.202459	15.312676
Paceco	S12103	14	37.991354	12.550844
Pachino	S12445	14	36.710144	15.094661
Paderno Robbiate	S01502	1	45.678307	9.439202
Padiglione	S08707	5	41.513518	12.629476
Padova	S02581	12	45.417846	11.880794
Padula	S09908	18	40.335142	15.629921
Paduli	S09313	18	41.146232	14.838878
Paese	S02540	12	45.669207	12.161677
Paese Castagnole	S02602	12	45.691182	12.182619
Paestum	S11703	18	40.421691	15.014915
Pagani	S09813	18	40.74654	14.616996
Paganica	S07416	19	42.334751	13.464317
Palagianello	S11508	16	40.610906	16.975202
Palagiano Chiatona	S11464	16	40.516998	17.059217
Palagiano Mottola	S11509	16	40.601744	17.065478
Palagonia	S12279	14	37.318146	14.892565
Palazzo Reale-Orleans	S12130	14	38.10878	13.353962
Palazzo S.Gervasio - Montemil.	S11303	15	40.93929	15.98982
Palazzolo Dello Stella	S03203	10	45.803403	13.083957
Palazzolo Sull`Oglio	S01538	1	45.601486	9.896235
Palazzolo Vercellese	S00175	3	45.189004	8.232787
Palena	S08904	19	41.918401	14.105189
Palermo Brancaccio	S12055	14	38.093141	13.392508
Palermo Notarbartolo	S12134	14	38.132261	13.341572
Palestro	S00271	1	45.307274	8.534511
Palidano	S02343	1	44.972228	10.777412
Palizzi	S11859	17	37.91881	15.986405
Pallanzeno	S00002	3	46.043533	8.260645
Pallerone	S06220	13	44.204232	10.005173
Palma S.Gennaro	S09701	18	40.864149	14.540472
Palmanova	S03122	10	45.906862	13.296461
Palmi	S11769	17	38.364914	15.84438
Palo Laziale	S08018	5	41.939327	12.102739
Palombina	S07112	11	43.61701	13.429721
Panicaglia	S06605	13	43.978449	11.407511
Pantiere Di Castelbellino	S07234	11	43.500941	13.183116
Paola	S11739	17	39.359442	16.033093
Parabiago	S01035	1	45.552441	8.946319
Paratico Sarnico	S01620	1	45.662478	9.961417
Parco Leonardo	S08412	5	41.79932	12.29543
Parghelia	S11759	17	38.683341	15.925042
Parma	S05014	8	44.810203	10.32837
Parona Lomellina	S01060	1	45.280107	8.780315
Partinico	S12124	14	38.05857	13.108956
Passignano Sul Trasimeno	S07001	6	43.188324	12.133128
Paternopoli	S09607	18	40.972903	15.009932
Patti-San Piero Patti	S12036	14	38.146905	14.975331
Paulilatino	S12874	20	40.077373	8.775812
Pavia	S01860	1	45.188843	9.144674
Pavia Porta Garibaldi	S01861	1	45.183996	9.167331
Pavona	S08731	5	41.723897	12.61116
Pedaso	S07510	11	43.094694	13.844906
Pederobba Cavaso Possagno	S02567	12	45.877299	11.965222
Pellezzano	S09521	18	40.719928	14.777354
Penango	S00341	3	45.032254	8.235138
Perarolo Di Cadore	S02553	12	46.386277	12.352493
Pergine	S02305	9	46.062482	11.232637
Pergola	S07060	11	43.549653	12.832973
Peri	S02052	12	45.658402	10.900314
Pertengo	S00311	3	45.233305	8.426739
Perugia	S07004	6	43.103808	12.375567
Perugia Ponte S.Giovanni	S07005	6	43.091801	12.438239
Pesaro	S07104	11	43.906014	12.904848
Pescara	S07810	19	42.467789	14.205066
Pescara Porta Nuova	S07811	19	42.458072	14.211663
Pescara S. Marco	S07017	19	42.44613	14.208981
Peschiera Del Garda	S02088	12	45.438502	10.702509
Pescia	S06409	13	43.886811	10.686074
Pescina	S08532	19	42.037564	13.668981
Pescocanale	S08811	19	41.9589	13.391624
Pescolanciano-Chiauci	S08915	7	41.678996	14.341588
Pescosannita Fragneto L`Abate	S09507	18	41.236154	14.788527
Pessione	S00457	3	44.965132	7.841321
Petina	S09901	18	40.560347	15.389298
Petrosino Strasatti	S12109	14	37.725466	12.509434
Pettenasco	S00011	3	45.820498	8.406802
Pettorano Sul Gizio	S08901	19	41.974557	13.965036
Piacenza	S05000	8	45.052238	9.70633
Piadena	S01919	1	45.127608	10.369962
Pian Del Mugnone	S06952	13	43.813899	11.265994
Pian Di Venola	S05114	8	44.332136	11.188609
Piana	S00876	2	44.486383	8.308796
Piana Bella Montelibretti	S08222	5	42.105159	12.632938
Piana Del Signore	S12394	14	37.056089	14.304292
Pianerottolo Di Ariano	S09317	18	41.188984	15.145482
Pianfei	S00903	3	44.385228	7.717109
Piano D`Orta Bolognano	S07714	19	42.254455	13.951514
Piano Orizzontale Dei Giovi	S04216	2	44.530912	8.9192
Pianoro	S05131	8	44.380589	11.340675
Pianzano	S02705	12	45.913397	12.388168
Piazza Al Serchio	S06325	13	44.182515	10.296615
Piazza Amedeo	S09106	18	40.838506	14.232974
Piazza Cavour	S09108	18	40.855248	14.255175
Picerno	S09833	15	40.640122	15.641612
Piedimulera	S00003	3	46.024348	8.261237
Pietra Ligure	S04520	2	44.145345	8.277403
Pietrabissara	S04209	2	44.658637	8.926969
Pietragalla	S11213	15	40.753314	15.79211
Pietrapaola	S11816	17	39.540121	16.860819
Pietrarsa	S09801	18	40.822433	14.32058
Pietrasanta	S06012	13	43.95583	10.229731
Pietrelcina	S09508	18	41.18865	14.832469
Pieve Albignola	S00402	1	45.116248	8.959723
Pieve Ligure	S04711	2	44.372644	9.090975
Pieve Vergonte	S00004	3	46.009783	8.276298
Pievetta	S00922	3	44.257449	8.021744
Pignataro Maggiore	S09207	18	41.17384	14.160545
Pinarolo Po	S01931	1	45.073415	9.170273
Pinerolo	S00517	3	44.887673	7.337402
Pinerolo Olimpica	S00082	3	44.893325	7.349043
Pineto	S08334	5	41.909222	12.438385
Pineto Atri	S07806	19	42.607736	14.069072
Pinzano	S03055	10	46.179217	12.950779
Pioltello Limito	S01703	1	45.486019	9.329319
Piombino	S06770	13	42.924854	10.530959
Piombino Binari Mare	S06775	13	42.928931	10.54525
Piombino Dese	S02509	12	45.60944	12.00058
Piona	S01406	1	46.124696	9.350759
Pioppe Di Salvaro	S05106	8	44.310761	11.161785
Piraineto	S12125	14	38.169148	13.14256
Pisa Binari Aeroporto	S06450	13	43.698555	10.398436
Pisa Centrale	S06500	13	43.70794	10.398183
Pisa San Rossore	S06501	13	43.723702	10.387363
Piscina Di Pinerolo	S00515	3	44.921744	7.425482
Pisciolo	S09625	15	41.018914	15.565446
Pisciotta Palinuro	S11712	18	40.091539	15.243601
Pisticci	S11459	15	40.420848	16.552181
Pistoia	S06414	13	43.926804	10.914624
Piteccio	S05116	13	44.009786	10.9013
Pizzighettone	S01911	1	45.181772	9.777133
Pizzo	S11753	17	38.726323	16.150615
Plaus	S02212	9	46.65844	11.041057
Ploaghe	S12816	20	40.66132	8.728075
Pocapaglia	S00842	3	44.701066	7.892496
Poggibonsi	S06805	13	43.468093	11.149455
Poggio - Careggine - Vagli	S06323	13	44.148541	10.350626
Poggio Fidoni	S07428	5	42.395811	12.795429
Poggio Imperiale	S11023	16	41.805561	15.35707
Poggio Mirteto	S08213	5	42.242187	12.633043
Poggio Renatico	S05720	8	44.767292	11.483701
Poggio Rusco	S05308	1	44.981859	11.124627
Poggiorsini	S11305	16	40.935221	16.266897
Poggiridenti-Tresivio-Piateda	S01433	1	46.166888	9.93382
Pogliola	S00904	3	44.399796	7.75057
Polesella	S05708	12	44.961039	11.738498
Policastro Bussentino	S11718	18	40.076482	15.528438
Policoro Tursi	S11802	15	40.207304	16.688819
Polignano A Mare	S11128	16	40.990926	17.218676
Polla	S09903	18	40.512921	15.497238
Pollenza	S07305	11	43.240933	13.367031
Pollina	S12021	14	38.018	14.175943
Pombia	S01125	3	45.649547	8.637037
Pomezia - S.Palomba	S08601	5	41.706171	12.573611
Pompei	S09810	18	40.745918	14.501109
Pont	S00890	2	45.420436	7.60442
Pont Saint Martin	S00149	4	45.589834	7.795024
Pontassieve	S06904	13	43.773949	11.437904
Ponte A Elsa	S06807	13	43.694385	10.906008
Ponte A Moriano	S06312	13	43.908371	10.534264
Ponte A Tressa	S06869	13	43.250844	11.39617
Ponte Albanito	S09325	16	41.35148	15.532976
Ponte Casalduni	S09309	18	41.214169	14.696458
Ponte Della Venturina	S05123	8	44.128589	10.990756
Ponte Di Brenta	S02585	12	45.429216	11.947734
Ponte Di Piave	S02763	12	45.719624	12.460683
Ponte D`Adda	S01912	1	45.184352	9.790737
Ponte D`Adige	S02225	9	46.485444	11.297719
Ponte Galeria	S08403	5	41.818349	12.344733
Ponte Gardena	S02020	9	46.6012	11.53251
Ponte Ginori	S06752	13	43.335594	10.740536
Ponte In Valtellina	S01434	1	46.162631	9.975895
Ponte Nelle Alpi Polpet	S02558	12	46.182328	12.277604
Ponte Parrano Di Nocera Umbra	S07233	6	43.137437	12.776376
Ponte S.Marco - Calcinato	S02082	1	45.473788	10.409018
Ponte S.Pietro	S01528	1	45.69916	9.584322
Pontebba	S03010	10	46.508463	13.311357
Pontecagnano	S09821	18	40.641033	14.870272
Pontecchio Marconi	S05103	8	44.42294	11.26919
Pontecurone	S01809	3	44.962014	8.929717
Pontedera Casciana Terme	S06506	13	43.662145	10.628773
Pontelagoscuro	S05711	8	44.873216	11.612526
Pontelandolfo	S09504	18	41.29578	14.712051
Pontenure	S05005	8	45.001687	9.792103
Pontetto	S04710	2	44.377309	9.07696
Ponti	S00871	3	44.629979	8.365262
Ponticino	S06913	13	43.481446	11.71657
Pontida	S01526	1	45.730084	9.511632
Pontremoli	S06163	13	44.371976	9.887795
Ponzana	S00247	3	45.402685	8.522689
Ponzano Magra	S06200	2	44.136227	9.934115
Popolano	S06612	13	44.102323	11.649045
Popoli Vittorito	S07703	19	42.172354	13.826152
Populonia	S06773	13	42.996412	10.540659
Porcari	S06406	13	43.831263	10.619212
Pordenone	S02701	10	45.956281	12.654126
Porretta  Terme	S05110	8	44.155757	10.978039
Portacomaro	S00344	3	44.957169	8.224345
Portici- Ercolano	S09802	18	40.809907	14.335809
Porto Ceresio	S01200	1	45.903675	8.900357
Porto Di Vasto	S07822	19	42.167774	14.698057
Porto D`Ascoli	S07514	11	42.912792	13.896813
Porto Empedocle	S12214	14	37.291539	13.537862
Porto Recanati	S07504	11	43.433726	13.661464
Porto S. Elpidio	S07507	11	43.256855	13.760749
Porto S. Giorgio Fermo	S07508	11	43.17972	13.7975
Porto Torres	S12802	20	40.833045	8.39642
Porto Valtravaglia	S01116	1	45.958219	8.674141
Porto Varallo Pombia	S01124	3	45.677697	8.638383
Portogruaro Caorle	S03200	12	45.781438	12.832375
Portomaggiore	S05802	8	44.696699	11.799785
Possidente	S11220	15	40.781144	15.777104
Postioma	S02601	12	45.715862	12.148248
Posto Comunicazione Dolce`	S02053	12	45.601513	10.850588
Potenza Inferiore	S11420	15	40.629469	15.806808
Potenza Picena Montelupone	S07505	11	43.36991	13.59265
Potenza Superiore	S11217	15	40.64586	15.800966
Pove Del Grappa Campese	S02505	12	45.803248	11.719936
Pozzallo	S12420	14	36.733821	14.848708
Pozzolo Formigaro	S04330	3	44.797395	8.782521
Pozzuoli Solfatara	S09101	18	40.827586	14.126163
Pozzuolo Martesana	S01722	1	45.510567	9.459096
Pracchia	S05113	13	44.05479	10.90691
Praja Ajeta Tortora	S11725	17	39.900832	15.780628
Prasco Cremolino	S04101	3	44.648906	8.55001
Prata Pratola	S09513	18	40.988509	14.842666
Pratignone	S06423	13	43.849273	11.162008
Prato Borgonuovo	S06426	13	43.893216	11.076222
Prato Centrale	S06416	13	43.878737	11.109252
Prato Porta Al Serraglio	S06422	13	43.884637	11.097385
Prato Sesia	S00108	3	45.646472	8.370476
Pratola Peligna	S07700	19	42.102423	13.876349
Pratola Peligna Superiore	S07601	19	42.080415	13.87223
Predosa	S04003	3	44.750978	8.651132
Preganziol	S02715	12	45.60367	12.23138
Pregnana Milanese	S01058	1	45.511868	9.003943
Premosello Chiovenda	S01009	3	46.002188	8.326649
Prezza	S08536	19	42.053699	13.834497
Pre` Saint Didier	S00130	4	45.7636	6.99105
Primolano	S02319	12	45.965315	11.700899
Priola	S00923	3	44.248694	8.023429
Priolo Melilli	S12347	14	37.157951	15.197038
Priolo Soprano	S12393	14	37.092142	14.377888
Priverno Fossanova	S08604	5	41.421853	13.186406
Punta Raisi	S12133	14	38.188892	13.110059
Quarona	S00102	3	45.763547	8.266603
Quart	S00138	4	45.741372	7.414645
Quarto Di Marano	S09111	18	40.871086	14.122801
Quarto D`Altino	S02670	12	45.574576	12.365032
Quattro Venti	S08005	5	41.880145	12.459731
Quercianella	S06728	13	43.454922	10.37255
Quero Vas	S02565	12	45.939306	11.920189
Quiliano Vado	S04527	2	44.279933	8.435562
Quincinetto	S00150	3	45.567295	7.809711
Roma Termini	S08409	5	41.900636	12.502026
R.C.Aeroporto	S11866	17	38.073039	15.642301
Racalmuto	S12373	14	37.406065	13.72752
Racconigi	S00602	3	44.771179	7.685681
Ragusa	S12414	14	36.91927	14.725677
Ragusa Ibla	S12416	14	36.93133	14.750993
Raiano	S07600	19	42.097931	13.80908
Randazzo	S12365	14	37.873782	14.950406
Rapallo	S04720	2	44.351398	9.231282
Rapolano Terme	S06850	13	43.283331	11.602504
Rapone Ruvo S.Fele	S09621	15	40.88802	15.47373
Rastignano	S05138	8	44.443592	11.357617
Ravenna	S05811	8	44.419155	12.208404
Recale	S09302	18	41.06235	14.30323
Recco	S04714	2	44.361215	9.146788
Redipuglia	S03308	10	45.853476	13.486016
Reggio Calabria Centrale	S11781	17	38.103884	15.635844
Reggio Calabria Lido	S11780	17	38.117668	15.649171
Reggio Di Calabria Catona	S11776	17	38.185806	15.641205
Reggio Di Calabria Gallico	S11777	17	38.165235	15.650716
Reggio Di Calabria Pellaro	S11867	17	38.02561	15.650064
Reggio Di Calabria S.Gregorio	S11868	17	38.061274	15.652053
Reggio Emilia	S05023	8	44.697793	10.643093
Reggio Emilia Av	S05254	8	44.779886	10.744171
Regoledo	S01410	1	46.030574	9.292106
Remedello Sopra	S01845	1	45.27848	10.379211
Remedello Sotto	S01846	1	45.257477	10.388402
Renate-Veduggio	S01489	1	45.728304	9.279834
Resana	S02508	12	45.634081	11.964251
Revere	S05305	1	45.049863	11.130884
Reviglione Di Somma Vesuviana	S09762	18	40.872234	14.482833
Rho	S01037	1	45.523813	9.043563
Riace	S11845	17	38.389178	16.528152
Riardo	S09204	18	41.265177	14.124949
Ricadi	S11761	17	38.630676	15.839848
Riccione	S07101	8	43.999218	12.658549
Rieti	S07405	5	42.405918	12.862596
Rignano Garganico	S11028	16	41.579344	15.490229
Rignano Sull`Arno Reggello	S06906	13	43.720834	11.452383
Rigoli	S06401	13	43.789681	10.419663
Rigomagno	S06851	13	43.256767	11.706492
Rigoroso	S04208	3	44.670577	8.896487
Rimini	S05071	8	44.064176	12.574093
Rimini Miramare	S07100	8	44.030388	12.618105
Rimini Torre Pedrera	S05819	8	44.106987	12.508755
Rimini Viserba	S05820	8	44.088407	12.533785
Rio Di Pusteria	S02102	9	46.79712	11.670028
Rio Secco	S04004	3	44.722275	8.658805
Riofreddo	S08517	5	42.060704	13.021419
Riola	S05108	8	44.229851	11.053592
Riomaggiore	S04736	2	44.105203	9.729105
Rionero Atella Ripacandita	S11209	15	40.922066	15.678699
Ripabottoni S.Elia	S09463	7	41.669666	14.844353
Ripafratta	S06402	13	43.821711	10.415733
Riparbella	S06750	13	43.339461	10.582184
Risano	S03120	10	45.97487	13.26181
Riva Trigoso	S04726	2	44.26391	9.429277
Rivalta Scrivia	S04331	3	44.854158	8.809846
Rivisondoli-Pescocostanzo	S08905	19	41.877292	14.079308
Robbio	S00272	1	45.293542	8.597051
Robecco-Pontevico	S01904	1	45.266224	10.078593
Robilante	S00615	3	44.296496	7.510906
Rocca Di Corno	S07410	19	42.388164	13.143939
Rocca Di Fondi	S07409	5	42.39799	13.095825
Rocca D`Evandro	S09200	5	41.438861	13.911338
Rocca Imperiale	S11804	17	40.100043	16.615742
Rocca Ravindola	S09058	7	41.521035	14.122965
Roccabernarda	S11828	17	38.942165	16.900439
Roccaciglie`	S00740	3	44.425831	7.95274
Roccadebaldi	S00905	3	44.410446	7.780449
Roccagrimalda	S04006	3	44.675247	8.656154
Roccalumera Mandanici	S12312	14	37.972946	15.391411
Roccamurata	S06159	8	44.532756	9.876175
Roccapalumba-Alia	S12204	14	37.793751	13.673628
Roccaraso	S08906	19	41.850833	14.079292
Roccasecca	S08668	5	41.526377	13.645814
Roccastrada	S06823	13	42.957631	11.192942
Roccavione	S00614	3	44.314445	7.485361
Roccella Jonica	S11847	17	38.322043	16.406917
Rocchetta Cairo	S00878	2	44.427477	8.295356
Rocchetta S.Ant.Lac.	S11205	16	41.1518	15.53295
Rocchetta Tanaro Cerro	S00466	3	44.875574	8.351402
Rodallo	S00159	3	45.278714	7.878025
Rogolo	S01423	1	46.138696	9.486985
Rolo Novi Fabbrico	S02346	8	44.886561	10.867882
Roma Aurelia	S08025	5	41.88344	12.395271
Roma Casilina	S08674	5	41.87669	12.537297
Roma Monte Mario	S08322	5	41.939088	12.421732
Roma Nomentana L.L.	S08236	5	41.932935	12.523628
Roma Ostiense	S08406	5	41.87265	12.483917
Roma Prenestina	S08500	5	41.897571	12.545803
Roma S.Filippo Neri	S08325	5	41.950262	12.412414
Roma S.Pietro	S08323	5	41.896143	12.454497
Roma Tiburtina	S08217	5	41.910903	12.530749
Roma Tiburtina Piazzale Est	S08226	5	41.910903	12.530749
Roma Trastevere	S08405	5	41.872279	12.466162
Roma Tuscolana	S08408	5	41.879384	12.523505
Romagnano Sesia	S00109	3	45.629888	8.384581
Romagnano V.	S09829	18	40.610041	15.447651
Romano	S01711	1	45.523839	9.753402
Romanore	S02337	1	45.063834	10.750997
Rometta Messinese	S12049	14	38.228455	15.405894
Roncanova Di Gazzo Ver.	S05303	12	45.142207	11.097995
Roncegno Bagni-Marter	S02312	9	46.03618	11.398818
Ronchi Dei Legionari Nord	S03309	10	45.830285	13.505962
Ronciglione	S08109	5	42.282499	12.219437
Ronco Scr.	S04211	2	44.614537	8.949421
Ronta	S06606	13	44.009432	11.434125
Rosarno	S11765	17	38.488593	15.970149
Rosa`	S02521	12	45.72054	11.775799
Roseto Capo Spulico	S11806	17	39.972412	16.620275
Roseto Degli Abruzzi	S07804	19	42.677852	14.01535
Rosignano	S06730	13	43.387899	10.438041
Rosolina	S05424	12	45.075548	12.239663
Rosolini	S12422	14	36.81598	14.952955
Rossano	S11813	17	39.603005	16.640859
Rossano Veneto	S02522	12	45.702039	11.784812
Rossiglione	S04104	2	44.566955	8.668051
Rosta	S00215	3	45.078397	7.463963
Rottofreno	S01950	8	45.060546	9.549127
Rovasenda	S00053	3	45.537291	8.317376
Rovasenda Alta	S00056	3	45.537368	8.316722
Rovato	S01714	1	45.55193	10.000924
Roverbella	S02333	1	45.252645	10.796795
Rovereto	S02044	21	45.890985	11.033518
Roviano	S08515	5	42.026476	12.991119
Rovigo	S05706	12	45.076993	11.780892
Rubiera	S05031	8	44.65618	10.780252
Rudalza	S12895	20	40.994082	9.531214
Rufina	S06703	13	43.822236	11.485072
Russi	S05903	8	44.379011	12.03164
Rutino	S11707	18	40.29259	15.104561
S. Ambrogio	S00213	3	45.101161	7.360933
S. Antonino Di Saluggia	S00236	3	45.253967	8.039728
S. Antonino Vaie	S00211	3	45.109469	7.275931
S. Cassiano Valchiavenna	S01401	1	46.275438	9.397419
S. Cristina E Bissone	S01866	1	45.160533	9.401006
S. Damiano D`Asti	S00461	3	44.878914	8.125956
S. Dona` Di Piave	S02666	12	45.63983	12.559791
S. Eurosia	S08739	5	41.675927	12.755105
S. Germano Vercellese	S00243	3	45.353603	8.249958
S. Giacomo Di Teglio	S01436	1	46.159722	10.027405
S. Giovanni In Croce	S01849	1	45.075783	10.377527
S. Giuliano Milanese	S01821	1	45.391226	9.286418
S. Giuliano Piacentino	S01961	8	45.070627	9.985919
S. Margherita Ligure Portofino	S04718	2	44.33676	9.216673
S. Maria Delle Mole	S08738	5	41.774417	12.606225
S. Nicola Di Melfi	S11300	15	41.073281	15.677602
S. Paolo Solbrito	S00463	3	44.951753	7.975779
S. Pietro A Vico	S06313	13	43.875094	10.530945
S. Pietro Avellana-Capracotta	S08912	7	41.76978	14.19995
S. Pietro Berbenno	S01428	1	46.161347	9.740491
S. Pietro Vernotico	S11141	16	40.48902	18.000716
S. Stefano Di Magra	S06170	2	44.156857	9.915202
S. Stino Di Livenza	S02664	12	45.721088	12.682769
S. Vincenzo	S06030	13	43.100366	10.539823
S. Zeno Folzano	S01900	1	45.491552	10.211683
S. Zenone Al Lambro	S01823	1	45.337824	9.36126
S.Agata M.	S12027	14	38.073554	14.640622
S.Agata Sul Santerno	S05954	8	44.436774	11.858855
S.Alessio Siculo Forza D`Agro`	S12315	14	37.923992	15.347322
S.Andrea Dell`Jonio	S11840	17	38.620097	16.553449
S.Angelo Dei Lombardi	S09615	18	40.890372	15.161478
S.Anna Robella	S00434	3	45.074464	8.08568
S.Antimo S.Arpino	S09007	18	40.949188	14.247415
S.Antonio Mantovano	S02334	1	45.187447	10.785806
S.Arcangelo Di Romagna	S05069	8	44.070316	12.45454
S.Benedetto Del Tronto	S07513	11	42.954386	13.882297
S.Benigno Di Cuneo	S00609	3	44.461002	7.572712
S.Biagio	S05805	8	44.594511	11.87054
S.Biagio Di Callalta	S02761	12	45.686134	12.374316
S.Candido	S02114	22	46.732728	12.271917
S.Cassiano	S06615	8	44.143684	11.687503
S.Cataldo	S12382	14	37.469615	13.997659
S.Caterina Dell`Jonio	S11842	17	38.530452	16.571093
S.Claudio	S07312	11	43.287357	13.532751
S.Cristoforo Al Lago-Ischia	S02306	9	46.039743	11.23375
S.Croce Del Lago	S02735	12	46.094795	12.324068
S.Croce Del Sannio	S09502	18	41.37114	14.705455
S.Demetrio De` Vestini	S07418	19	42.294447	13.536543
S.Donnino Badia	S06514	13	43.785424	11.142169
S.Elena - Este	S05704	12	45.199209	11.712883
S.Ellero	S06905	13	43.742143	11.469621
S.Felice Sp	S05313	8	44.834527	11.140243
S.Filippo	S07557	11	42.849787	13.599949
S.Filippo-S.Lucia	S12044	14	38.198143	15.288334
S.Flavia	S12009	14	38.0826	13.530625
S.Frediano A Settimo	S06504	13	43.680508	10.517254
S.Giacomo Di Spoleto	S07220	6	42.79015	12.755445
S.Giorgio Casale	S00336	3	45.101495	8.412858
S.Giorgio Delle Pertiche	S02526	12	45.542538	11.917455
S.Giorgio P.	S05723	8	44.646641	11.37901
S.Giovanni Al Natisone	S03031	10	45.976122	13.397437
S.Giovanni Di Casarsa	S03199	10	45.943448	12.837255
S.Giovanni D`Asso	S06816	13	43.153292	11.593803
S.Giovanni Valdarno	S06909	13	43.56601	11.527033
S.Giuletta	S01943	1	45.035719	9.179239
S.Giuliano Piemonte	S01941	3	44.890543	8.760933
S.Giuliano Terme	S06400	13	43.764895	10.436892
S.Giuseppe Vesuviano	S09752	18	40.834058	14.502954
S.Giustina Cesio	S02562	12	46.077655	12.04294
S.Ilario	S05021	8	44.765795	10.450469
S.Liberato	S07235	6	42.478853	12.443006
S.Lorenzo Colli	S12132	14	38.16292	13.316449
S.Lorenzo Maggiore	S09308	18	41.219748	14.648419
S.Lucido Marina	S11740	17	39.313203	16.045546
S.Marcellino Frignano	S09005	18	40.992103	14.171976
S.Marco Roggiano	S11904	17	39.605223	16.208776
S.Maria Capua Vetere	S09209	18	41.07353	14.254081
S.Maria La Bruna	S09804	18	40.755435	14.407647
S.Maria La Longa	S03121	10	45.933068	13.287755
S.Maria Oliveto	S09059	7	41.507208	14.096049
S.Marino	S02501	12	45.897699	11.692241
S.Martino Al Cimino	S08307	5	42.382043	12.108104
S.Martino Buon Albergo	S02435	12	45.421559	11.089155
S.Martino Di Lupari	S02536	12	45.655928	11.857227
S.Martino In Gattara	S06613	8	44.113211	11.667077
S.Martino In Pensilis	S09468	7	41.877211	14.984218
S.Michele Di Serino	S09523	18	40.874511	14.853445
S.Michele In Bosco	S01924	1	45.122404	10.57329
S.Miniato Fucecchio	S06509	13	43.701383	10.831605
S.Nazario	S02503	12	45.838117	11.691321
S.Nicola Arcella	S11726	17	39.850764	15.793165
S.Nicola T.	S12012	14	38.015817	13.612755
S.Nicolo'	S01951	8	45.058843	9.606443
S.Piero A Sieve	S06603	13	43.958317	11.322742
S.Pietro A Maida	S11750	17	38.867817	16.276306
S.Pietro In Casale	S05722	8	44.697928	11.404763
S.Pietro In Gu`	S02531	12	45.605039	11.673157
S.Romano Montopoli S.Croce	S06508	13	43.690575	10.760152
S.Sebastiano Po	S00420	3	45.167102	7.953781
S.Severino Marche	S07303	11	43.22996	13.183491
S.Silvestro	S00173	3	45.19366	8.148095
S.Stefano Belbo	S00831	3	44.71714	8.241233
S.Stefano Lodigiano	S01829	1	45.122091	9.723606
S.Stefano Udinese	S03124	10	45.953683	13.274971
S.Tommaso Del Piano	S09630	15	40.900403	15.503719
S.Vincenzo V.R.	S08855	19	41.832988	13.526148
S.Vito Al Tagliamento	S02660	10	45.912433	12.851594
S.Vito Dei Normanni	S11135	16	40.650352	17.818585
S.Vito Lanciano	S07817	19	42.307401	14.448093
S.Vittoria	S00822	3	44.69561	7.916909
Sacile	S02703	10	45.948413	12.498498
Sacile San Liberale	S03089	10	45.959155	12.514778
Sagrado	S03307	10	45.872629	13.484004
Saint Pierre	S00161	4	45.708146	7.229338
Sairano	S00408	1	45.138858	9.046868
Sairano Zinasco	S00400	1	45.133795	9.030153
Sala Al Barro-Galbiate	S01461	1	45.821086	9.359223
Sala Consilina	S09906	18	40.405144	15.576057
Salandra	S11457	15	40.583446	16.351564
Salbertrand	S00205	3	45.073478	6.887428
Sale Langhe	S00743	3	44.392425	8.077468
Salemi Gibellina	S12114	14	37.806619	12.865517
Salerno	S09818	18	40.675137	14.772822
Saletto	S02394	12	45.22274	11.535093
Saliceto	S00744	3	44.404437	8.172887
Saline Di Reggio	S11864	17	37.938677	15.710664
Salone	S08502	5	41.915253	12.636215
Salorno	S02034	9	46.245842	11.202681
Salsomaggiore T.	S05090	8	44.81866	9.988129
Saluggia	S00235	3	45.23443	8.017112
Salussola	S00074	3	45.44438	8.115195
Salza Irpina	S09600	18	40.922251	14.881761
Salzano Robegano	S02511	12	45.535378	12.111485
Samassi Serrenti	S12885	20	39.483075	8.899035
Samoggia	S05039	8	44.567307	11.146221
Samolaco	S01402	1	46.246436	9.423582
Sampieri	S12419	14	36.73188	14.744577
San Benedetto Sambro-Cast.Pepoli	S05134	8	44.22866	11.19226
San Bonifacio	S02440	12	45.40276	11.27406
San Gavino	S12882	20	39.546206	8.788017
San Giacomo	S04005	3	44.687745	8.663185
San Giorgio	S12034	14	38.173967	14.94414
San Giorgio Di Nogaro	S03205	10	45.82917	13.210315
San Giovanni	S12804	20	40.762523	8.499282
San Giovanni In Persiceto	S05319	8	44.643151	11.189444
San Giuseppe Di Cairo	S04805	2	44.370096	8.28864
San Leonardo Di Cutro	S11827	17	38.954221	16.964409
San Marco D`Alunzio T.	S12028	14	38.094202	14.675909
San Mauro La Bruca	S11714	18	40.09683	15.298924
San Momme`	S05118	13	44.027999	10.914798
San Nicola Varco Di Eboli	S11700	18	40.561479	14.998375
San Remo	S04505	2	43.821269	7.766693
San Severo	S11025	16	41.684512	15.392567
Sandigliano	S00072	3	45.519652	8.081531
Sanfre`	S00731	3	44.74799	7.796793
Sangiano	S01140	1	45.874464	8.630769
Sangineto	S11733	17	39.592487	15.863973
Sanguinetto	S02384	12	45.188811	11.152467
Sanluri Stato	S12883	20	39.526147	8.850221
Sannazzaro	S00403	1	45.10554	8.905149
Sannicandro Di Bari	S11503	16	40.958821	16.753771
Santa Domenica	S11786	17	38.663764	15.859822
Santa Luce	S06023	13	43.437248	10.48971
Santa Maria Di Catanzaro	S11957	17	38.864988	16.605785
Santa Marinella	S08015	5	42.035892	11.863122
Santa Severa	S08016	5	42.020645	11.969077
Santa Teresa Di Riva	S12314	14	37.946295	15.367682
Sante Marie	S08521	19	42.096993	13.21696
Santeramo	S11310	16	40.8026	16.76403
Santhia`	S00240	3	45.363726	8.180093
Santo Stefano Di Camastra	S12024	14	38.01778	14.35104
Santuario	S04802	2	44.34607	8.435756
Santuario Incoronata	S11201	16	41.370726	15.605748
Sant`Anna	S12897	20	39.810758	8.641451
Sant`Orsola	S12806	20	40.747117	8.532229
Sanzano Occhino	S09629	18	40.8869	15.27783
Sapri	S11721	18	40.078013	15.627204
Sarmato	S01949	8	45.063043	9.491116
Sarno	S09702	18	40.813063	14.612442
Saronno	S01933	1	45.625309	9.030839
Sarre	S00136	4	45.717919	7.258468
Sartirana	S00038	1	45.111728	8.67012
Sarzana	S06007	2	44.108865	9.960657
Sassa Tornimparte	S07413	19	42.360549	13.295333
Sassano Teggiano	S09907	18	40.368687	15.604818
Sassari	S12807	20	40.729506	8.554157
Sasso Marconi	S05104	8	44.394939	11.254333
Sassoferrato Arcevia	S07063	11	43.435381	12.851514
Sassone	S08712	5	41.783777	12.625832
Savigliano	S00604	3	44.651337	7.663748
Savignano Greci	S09318	18	41.230587	15.167109
Savignano Sul Rubicone	S05068	8	44.095191	12.40421
Savona	S04801	2	44.306892	8.470259
Savona Marittima	S04800	2	44.308777	8.488243
Scafa S.Valentino Caramanico T	S07707	19	42.26717	13.99909
Scafati	S09811	18	40.746028	14.523253
Scala Di Giocca	S12814	20	40.698881	8.59695
Scalea S.Domenica Talao	S11727	17	39.8083	15.80139
Scalenghe	S00540	3	44.89018	7.490745
Scaletta Zanclea	S12309	14	38.04635	15.465376
Scanzano Belfiore	S07216	6	42.983918	12.737692
Scanzano J. Montalbano J.	S11801	15	40.25362	16.705192
Scarlino	S06035	13	42.942002	10.836798
Scerne Di Pineto	S07805	19	42.642427	14.041324
Schio	S02140	12	45.710848	11.355508
Scicli	S12418	14	36.789939	14.698759
Scilla	S11772	17	38.251202	15.710886
Scopeti	S06705	13	43.841117	11.497001
Scorcetoli	S06164	13	44.34431	9.911853
Scordia	S12278	14	37.294595	14.851219
Scurcola Marsicana	S08524	19	42.053136	13.344374
Secugnago	S01826	1	45.223253	9.58684
Sedico Bribano	S02560	12	46.095424	12.086508
Segesta Tempio	S12152	14	37.949585	12.828118
Segrate	S01715	1	45.480702	9.298873
Sella Di Corno	S07411	19	42.360461	13.189876
Sellia Marina	S11831	17	38.903666	16.764788
Selva Del Bocchetto	S06155	8	44.62487	10.006253
Senigallia	S07108	11	43.716277	13.221652
Sepino	S09501	7	41.413946	14.657456
Seregno	S01318	1	45.64601	9.20285
Seriate	S01533	1	45.683145	9.724628
Serino	S09515	18	40.858838	14.860182
Serra S.Quirico	S07205	11	43.444879	13.027408
Serradifalco	S12383	14	37.431804	13.883299
Serralunga Cereseto	S00338	3	45.100914	8.30742
Serramanna Nuraminis	S12886	20	39.426123	8.916579
Serravalle	S02048	9	45.808184	11.014942
Serravalle D`Asti	S00431	3	44.948019	8.14808
Serravalle Pistoiese	S06413	13	43.908016	10.85168
Serravalle Scrivia	S04206	3	44.72393	8.858548
Serre Di Rapolano	S06857	13	43.284347	11.558209
Sessa Aurunca R.	S09000	18	41.1955	13.8761
Sessano Del Molise	S08917	7	41.639587	14.32853
Sesto Calende	S01026	1	45.726241	8.628135
Sesto Campano	S09062	7	41.420005	14.088909
Sesto Fiorentino	S06418	13	43.833297	11.191941
Sesto S. Giovanni	S01325	1	45.541087	9.23926
Sestri Levante	S04725	2	44.27626	9.397651
Sette Bagni	S08216	5	42.006438	12.520156
Settequerce	S02224	9	46.508448	11.264785
Settime Cinaglio Mombarone	S00430	3	44.966229	8.128853
Settimo	S00229	3	45.139834	7.769335
Settimo Tavagnasco	S00151	3	45.546214	7.825189
Settingiano	S11954	17	38.903198	16.510832
Sevegliano	S03151	10	45.887451	13.30468
Seveso	S01925	1	45.648187	9.140488
Sezze Romano	S08609	5	41.495542	13.038452
Sgurgola	S08659	5	41.687018	13.146199
Sibari	S11811	17	39.749863	16.456922
Sicignano Degli Alburni	S09827	18	40.605454	15.290904
Siderno	S11850	17	38.2708	16.302
Sieci	S06903	13	43.790892	11.394608
Siena	S06809	13	43.331708	11.322972
Siena Zona Industriale	S06867	13	43.26528	11.376652
Signa	S06513	13	43.775441	11.095961
Silandro	S02205	9	46.625613	10.766327
Siliqua	S12954	20	39.297005	8.813078
Silla	S05109	8	44.177652	10.980635
Sillavengo	S00978	3	45.521303	8.444987
Silvi	S07807	19	42.55911	14.110365
Simeri Crichi	S11832	17	38.883068	16.716122
Sinalunga	S06852	13	43.216189	11.744866
Sipicciano	S08300	5	42.546495	12.254318
Siponto	S11056	16	41.61296	15.895572
Siracusa	S12349	14	37.068906	15.280896
Siracusa M.	S12351	14	37.057888	15.293258
Sistiana	S03312	10	45.774903	13.645832
Sizzano	S00111	3	45.573834	8.436024
Sluderno-Glorenza	S02201	9	46.664329	10.581832
Soffratta	S02732	12	45.976377	12.299346
Solagna	S02504	12	45.815434	11.72134
Solarolo	S05900	8	44.356425	11.849183
Solarussa	S12876	20	39.952525	8.679813
Solero	S00469	3	44.915886	8.51043
Soliera Modenese	S02351	8	44.722667	10.90601
Solignano	S06156	8	44.614024	9.98014
Solofra	S09516	18	40.834504	14.843975
Solopaca	S09307	18	41.210521	14.571413
Somma Lombardo	S01028	1	45.686423	8.712991
Sommariva Bosco	S00730	3	44.770754	7.777086
Sondrio	S01430	1	46.167064	9.872928
Sora	S08857	5	41.716618	13.618601
Soresina	S01607	1	45.283083	9.85664
Sorgenti Del Peschiera	S07434	5	42.36428	12.996973
Sori	S04712	2	44.369795	9.106006
Soverato	S11837	17	38.684339	16.549416
Spadafora	S12048	14	38.221922	15.377196
Spagnuola	S12106	14	37.83631	12.477051
Sparanise	S09206	18	41.185707	14.092954
Spartimento Di Scisciano	S09761	18	40.891561	14.468487
Spello	S07010	6	42.9844	12.668884
Spezzano Albanese Terme	S11901	17	39.707307	16.287599
Spigno	S00874	3	44.539437	8.317924
Spinazzola	S11304	16	40.953396	16.087173
Spinetoli Colli	S07552	11	42.87032	13.762811
Spinetta	S01940	3	44.882378	8.683146
Spoleto	S07221	6	42.748121	12.736142
Spondigna-Prato Venosta	S02202	9	46.634571	10.60999
Spotorno Noli	S04526	2	44.226528	8.410932
Spresiano	S02709	12	45.77763	12.266984
Squillace	S11835	17	38.77705	16.570418
Squinzano	S11142	16	40.439266	18.046097
Stanghella	S05705	12	45.13209	11.749094
Stazione Per L`Alpago	S02736	12	46.137574	12.316066
Sticciano	S06824	13	42.929333	11.118621
Stimigliano	S08212	5	42.289811	12.568632
Strada Casale	S06617	8	44.183511	11.697496
Stradella	S01945	1	45.079465	9.300865
Strambino	S00155	3	45.382508	7.887955
Strassoldo	S03150	10	45.856617	13.31836
Stresa	S01016	3	45.884486	8.531454
Strevi	S00866	3	44.697771	8.525525
Strigno	S02315	9	46.051003	11.514327
Stroncone	S07400	6	42.517955	12.65372
Strongoli	S11822	17	39.228139	17.108256
Su Canale	S12896	20	40.838375	9.404226
Sulmona	S08539	19	42.060836	13.907156
Sulmona-Introdacqua	S08900	19	42.038241	13.92156
Suno	S00018	3	45.620435	8.519344
Susa	S00260	3	45.138622	7.052311
Susegana	S02708	12	45.821054	12.258364
Suzzara	S02340	1	44.994432	10.756138
Torino P.Nuova	S00219	3	45.060969	7.67747
Taggia Arma	S04506	2	43.840764	7.835604
Tagliacozzo	S08522	19	42.070701	13.255664
Taino Angera	S01122	1	45.772269	8.60599
Talamona	S01426	1	46.13952	9.599528
Talamone	S08002	13	42.56461	11.164524
Taormina	S12317	14	37.845429	15.282584
Taranto	S11465	16	40.483727	17.224059
Tarcento	S03022	10	46.209134	13.196211
Targia	S12353	14	37.10963	15.245908
Tarquinia	S08009	5	42.239463	11.727009
Tarsia	S11903	17	39.653552	16.24293
Tarvisio Boscoverde	S03015	10	46.505956	13.608012
Tassignano	S06405	13	43.834131	10.570495
Taurasi	S09605	18	40.980838	14.965804
Tavazzano	S01824	1	45.32629	9.402748
Teano	S09205	18	41.231804	14.077075
Teglio Veneto	S02662	12	45.809887	12.858938
Telese Cerreto	S09326	18	41.211709	14.526165
Teramo	S07900	19	42.660551	13.715882
Terlano-Andriano	S02223	9	46.528517	11.248394
Terme Euganee-Abano-Montegr.	S05701	12	45.32744	11.79604
Terme Vigliatore	S12040	14	38.133588	15.164396
Termini Imerese	S12014	14	37.980132	13.703631
Termoli	S11019	7	42.000623	14.992805
Ternate Varano Borghi	S01143	1	45.781835	8.700371
Terni	S07226	6	42.570768	12.651091
Terni Cospea	S07430	6	42.549615	12.625075
Terno	S01504	1	45.688658	9.536169
Terontola Cortona	S06922	13	43.210263	12.007906
Terracina	S08809	5	41.29697	13.244055
Terrarossa - Tresana	S06167	13	44.237379	9.959675
Terrenove	S12108	14	37.748755	12.480604
Terria	S07425	5	42.436334	12.782816
Terzigno	S09753	18	40.806926	14.503275
Terzo Montabone	S00869	3	44.671932	8.428705
Tezze Di Grigno	S02318	9	45.990485	11.669726
Thiene	S02143	12	45.700697	11.475407
Thurio	S11869	17	39.69651	16.474098
Tiera	S11216	15	40.697817	15.819279
Tione Degli Abruzzi	S07426	19	42.204908	13.64205
Tirano	S01440	1	46.21539	10.166961
Tissi Usini	S12813	20	40.689278	8.530258
Tito	S09834	15	40.607321	15.698194
Tivoli	S08508	5	41.961849	12.805047
Tocco Castiglione	S07705	19	42.226619	13.904658
Tolentino	S07304	11	43.214556	13.290501
Tollo Canosa Sannita	S07814	19	42.394208	14.339984
Tombolo	S06720	13	43.631726	10.352916
Tommaso Natale	S12131	14	38.190283	13.28819
Tonco Alfiano	S00342	3	45.012659	8.216858
Tor Sapienza	S08501	5	41.907095	12.594489
Tor Vergata	S08655	5	41.823224	12.666162
Tora Presenzano	S09202	18	41.358861	14.04514
Torano Lattarico	S11906	17	39.49455	16.210509
Torchiara	S11706	18	40.315916	15.041267
Torino Dora	S00224	3	45.090085	7.677853
Torino Lingotto	S00452	3	45.0266	7.657469
Torino Porta Susa	S00035	3	45.075906	7.667673
Torino S. Paolo	S00223	3	45.054519	7.639557
Torino Stura	S00228	3	45.121932	7.713202
Torralba	S12865	20	40.482769	8.781619
Torrazza P.	S00234	3	45.211855	7.970255
Torre Annunziata Centrale	S09806	18	40.747131	14.463744
Torre Annunziata Citta'	S09805	18	40.754069	14.448628
Torre Dei Passeri	S07706	19	42.244022	13.937525
Torre Del Greco	S09803	18	40.787631	14.363159
Torre Del Lago Puccini	S06015	13	43.826501	10.290287
Torre De` Picenardi	S01918	1	45.137198	10.286849
Torre In Pietra-Palidoro	S08019	5	41.92432	12.183116
Torre Melissa	S11821	17	39.304391	17.108402
Torre Orsaia	S11717	18	40.099017	15.481204
Torre Pellice	S00524	3	44.818929	7.225901
Torre S.Giorgio	S00545	3	44.737375	7.525461
Torreberetti	S00039	1	45.060533	8.660431
Torrenieri	S06817	13	43.086602	11.552385
Torricella	S07011	6	43.159149	12.188249
Torricola	S08600	5	41.809538	12.557716
Torrile S. Polo	S01853	1	44.885677	10.362814
Torrita Di Siena	S06854	13	43.174187	11.78758
Tortona	S01810	3	44.900126	8.861777
Tortoreto Lido	S07801	19	42.804562	13.939012
Torviscosa	S03206	10	45.826002	13.282358
Trabia	S12013	14	37.996408	13.65567
Trani	S11112	16	41.272693	16.417646
Trapani	S12100	14	38.017092	12.518814
Trappa	S00925	3	44.185375	7.994435
Trappeto	S12123	14	38.065089	13.036873
Travedona Biandronno	S01142	1	45.809601	8.696322
Travesio	S03081	10	46.187141	12.876921
Tre Croci	S08308	5	42.331525	12.086159
Trebaseleghe	S02514	12	45.581509	12.040046
Trebisacce	S11808	17	39.865561	16.532173
Trecate	S00252	1	45.428589	8.739561
Trecella	S01706	1	45.512792	9.480674
Tremestieri	S12303	14	38.150323	15.535528
Trento	S02038	21	46.072414	11.118941
Trepuzzi	S11143	16	40.40964	18.076902
Tresenda-Aprica-Teglio	S01437	1	46.162082	10.083754
Trevi	S07218	6	42.8762	12.733709
Treviglio	S01708	1	45.515063	9.587919
Treviglio Ovest	S01601	1	45.521762	9.580281
Trevignano Signoressa	S02600	12	45.74789	12.103123
Treviso C.	S02712	12	45.659608	12.24614
Trezzano S.N.	S01065	1	45.422203	9.071196
Trieste Aquilinia	S03856	10	45.618107	13.806161
Trieste Centrale	S03317	10	45.657456	13.771873
Trinitapoli S.Ferdin. Di P.	S11106	16	41.349677	16.090839
Trinita` Bene Vagienna	S00950	3	44.504656	7.752647
Trino Vercellese	S00176	3	45.190066	8.294093
Triuggio-Ponte Albiate	S01485	1	45.658956	9.266961
Trivigno	S11452	15	40.588598	15.997824
Trofarello	S00455	3	44.980471	7.735206
Troia Castelluccio Sauri	S09322	16	41.319829	15.421123
Tromello	S00275	1	45.211988	8.872154
Tronzano	S00239	3	45.342929	8.168395
Tropea	S11760	17	38.672302	15.894568
Tufo	S09512	18	41.013853	14.815962
Tuoro Sul Trasimeno	S07000	6	43.196631	12.0796
Tusa	S12022	14	38.007989	14.256693
Tuturano	S11140	16	40.550726	17.979016
Udine	S03026	10	46.055791	13.242003
Ugovizza Valbruna	S03006	10	46.502902	13.494972
Uras Mogoro	S12880	20	39.692629	8.696459
Urbisaglia Sforzacosta	S07306	11	43.25746	13.416932
Ururi Rotello	S09467	7	41.801134	14.953072
Venezia Santa Lucia	S02593	12	45.441569	12.320882
Verona Porta Nuova	S02430	12	45.428603	10.982377
Viterbo Porta Fiorentina	S08304	5	42.425237	12.106204
Vada	S06025	13	43.352641	10.470376
Vaglia	S06602	13	43.924442	11.284576
Vaglio Basilicata	S11450	15	40.656322	15.880105
Vaiano	S05136	13	43.961772	11.130773
Vairano	S09203	18	41.317446	14.104022
Valdaora - Anterselva	S02110	9	46.769231	12.02898
Valdibrana	S05117	13	43.965434	10.909994
Valenza	S00041	3	45.023527	8.625808
Valle Aurelia	S08329	5	41.899356	12.447667
Valle Di Maddaloni	S09304	18	41.087558	14.426049
Valle Di Mercato S.Severino	S09705	18	40.776365	14.722362
Valle Lomellina	S00037	1	45.150588	8.685874
Vallecrosia	S04502	2	43.787619	7.634997
Valledolmo	S12231	14	37.709073	13.756029
Vallelunga	S12232	14	37.691542	13.846428
Vallo Della Luc. Castelnuovo	S11709	18	40.233316	15.266511
Valmadonna	S00042	3	44.972588	8.610667
Valmadrera	S01463	1	45.846439	9.368183
Valmontone	S08656	5	41.774291	12.923696
Valtopina	S07214	6	43.05689	12.755068
Vandoies	S02103	9	46.814822	11.723079
Vanzago Pogliano	S01036	1	45.525216	8.995531
Vaprio D`Agogna	S00022	3	45.599085	8.536862
Varallo Pombia	S00982	3	45.670032	8.620047
Varallo Sesia	S00100	3	45.815227	8.256606
Varano	S07500	11	43.574729	13.523436
Varazze	S04531	2	44.356842	8.566682
Varenna Esino	S01411	1	46.015	9.286405
Varese	S01205	1	45.816201	8.833089
Varignana	S05052	8	44.436796	11.523078
Vasto S.Salvo	S07824	19	42.079832	14.739483
Vastogirardi	S08913	7	41.739482	14.249334
Ve Asseggiano	S02513	12	45.499357	12.178101
Velletri	S08734	5	41.682421	12.780864
Venafro	S09060	7	41.482975	14.048722
Venetico	S12047	14	38.216502	15.367076
